,City,Country,Date,Lat,Lng,Max Temp,Humidity,Cloudiness,Wind Speed,Current Description,Rain Inches (last 3 hrs),Snow Inches (last 3 hrs)
0,Barrow,US,2020-02-23 04:11:46,71.29,-156.79,-20.2,75,1,8.05,clear sky,0.0,0.0
1,Juba,SS,2020-02-23 04:11:47,4.85,31.58,79.25,52,66,1.43,broken clouds,0.0,0.0
2,Sorland,NO,2020-02-23 04:11:47,67.67,12.69,38.25,71,100,28.54,overcast clouds,0.0,0.0
3,Rikitea,PF,2020-02-23 04:11:47,-23.12,-134.97,79.86,66,12,6.15,few clouds,0.0,0.0
4,Bluff,NZ,2020-02-23 04:11:47,-46.6,168.33,61.0,75,70,15.99,broken clouds,0.0,0.0
5,Hithadhoo,MV,2020-02-23 04:11:47,-0.6,73.08,83.25,79,100,17.49,overcast clouds,0.0,0.0
6,Mackay,AU,2020-02-23 04:11:48,-21.15,149.2,82.4,78,75,13.87,broken clouds,0.0,0.0
7,Morgan City,US,2020-02-23 04:11:48,29.7,-91.21,53.6,81,1,5.82,clear sky,0.0,0.0
8,Atuona,PF,2020-02-23 04:11:48,-9.8,-139.03,81.77,77,0,12.37,clear sky,0.0,0.0
9,Carnarvon,AU,2020-02-23 04:11:48,-24.87,113.63,82.4,58,0,9.17,clear sky,0.0,0.0
10,Ushuaia,AR,2020-02-23 04:10:07,-54.8,-68.3,50.0,71,40,25.28,scattered clouds,0.0,0.0
11,Nikolskoye,RU,2020-02-23 04:11:49,59.7,30.79,39.2,84,40,13.42,scattered clouds,0.0,0.0
12,Umm Bab,QA,2020-02-23 04:11:49,25.21,50.81,70.0,93,20,6.82,mist,0.0,0.0
13,Chipinge,ZW,2020-02-23 04:11:49,-20.19,32.62,67.55,89,100,3.42,overcast clouds,0.0,0.0
14,Lebu,CL,2020-02-23 04:11:49,-37.62,-73.65,50.9,97,5,3.33,clear sky,0.0,0.0
15,Sangueya,GN,2020-02-23 04:11:49,10.7,-14.37,74.3,80,62,2.51,broken clouds,0.0,0.0
16,Jalu,LY,2020-02-23 04:11:49,29.03,21.55,51.44,72,0,11.43,clear sky,0.0,0.0
17,Norrtalje,SE,2020-02-23 04:11:50,59.76,18.7,42.01,69,75,19.46,broken clouds,0.0,0.0
18,Kidal,ML,2020-02-23 04:11:50,18.44,1.41,70.92,11,79,11.34,broken clouds,0.0,0.0
19,Georgetown,MY,2020-02-23 04:11:50,5.41,100.34,86.0,62,20,10.29,few clouds,0.0,0.0
20,Provideniya,RU,2020-02-23 04:11:50,64.38,-173.3,-9.22,82,0,2.42,clear sky,0.0,0.0
21,East London,ZA,2020-02-23 04:11:50,-33.02,27.91,67.21,67,92,17.0,light rain,0.25,0.0
22,Saint George,US,2020-02-23 04:11:51,37.1,-113.58,45.0,93,90,3.36,light rain,0.0,0.0
23,Vrangel,RU,2020-02-23 04:11:51,42.73,133.08,28.6,61,0,32.44,clear sky,0.0,0.0
24,Jamestown,US,2020-02-23 04:11:51,42.1,-79.24,37.99,75,1,8.05,clear sky,0.0,0.0
25,Carauari,BR,2020-02-23 04:11:51,-4.88,-66.9,75.11,93,100,1.21,overcast clouds,0.0,0.0
26,Lorengau,PG,2020-02-23 04:11:51,-2.02,147.27,83.62,67,0,3.71,clear sky,0.0,0.0
27,Nolinsk,RU,2020-02-23 04:11:52,57.56,49.94,28.33,90,96,15.55,overcast clouds,0.0,0.0
28,Punta Arenas,CL,2020-02-23 04:09:48,-53.15,-70.92,51.01,66,20,9.17,few clouds,0.0,0.0
29,Hobart,AU,2020-02-23 04:11:52,-42.88,147.33,79.0,52,20,18.34,few clouds,0.0,0.0
30,Evensk,RU,2020-02-23 04:11:52,61.95,159.23,-5.19,93,100,2.44,overcast clouds,0.0,0.0
31,Susanville,US,2020-02-23 04:08:46,40.42,-120.65,41.0,44,1,8.05,clear sky,0.0,0.0
32,Kisangani,CD,2020-02-23 04:11:52,0.52,25.2,74.48,69,71,2.51,broken clouds,0.0,0.0
33,Kashira,RU,2020-02-23 04:11:53,54.84,38.17,32.0,93,90,15.66,snow,0.0,0.0
34,Rolim De Moura,RU,2020-02-23 04:11:53,54.84,38.17,32.0,93,90,15.66,snow,0.0,0.0
35,San Patricio,MX,2020-02-23 04:11:53,19.22,-104.7,76.64,81,0,9.46,clear sky,0.0,0.0
36,Kruisfontein,ZA,2020-02-23 04:11:53,-34.0,24.73,55.51,83,28,1.88,light rain,0.13,0.0
37,Nikel,RU,2020-02-23 04:11:53,69.41,30.22,30.2,92,100,10.29,light snow,0.0,0.0
38,North Bend,US,2020-02-23 04:11:54,43.41,-124.22,48.99,93,75,5.82,broken clouds,0.0,0.0
39,Dikson,RU,2020-02-23 04:11:54,73.51,80.55,18.16,93,100,22.24,light snow,0.0,0.69
40,Alugan,PH,2020-02-23 04:11:54,12.22,125.48,81.16,74,0,12.24,light rain,0.44,0.0
41,Amderma,PH,2020-02-23 04:11:54,12.22,125.48,81.16,74,0,12.24,light rain,0.0,0.0
42,Butaritari,KI,2020-02-23 04:11:54,3.07,172.79,84.38,77,41,12.08,light rain,1.13,0.0
43,Coquimbo,CL,2020-02-23 04:11:54,-29.95,-71.34,59.0,87,1,2.24,clear sky,0.0,0.0
44,Zhangye,CN,2020-02-23 04:11:14,38.93,100.45,48.87,12,0,3.56,clear sky,0.0,0.0
45,Kapaa,US,2020-02-23 04:11:55,22.08,-159.32,78.8,73,40,6.93,scattered clouds,0.0,0.0
46,Priladozhskiy,RU,2020-02-23 04:11:55,59.85,31.48,39.2,84,40,13.42,scattered clouds,0.0,0.0
47,Sentyabrskiy,RU,2020-02-23 04:11:55,59.85,31.48,39.2,84,40,13.42,scattered clouds,0.0,0.0
48,Smiltene,LV,2020-02-23 04:11:55,57.42,25.9,37.99,83,99,8.01,overcast clouds,0.0,0.0
49,Albany,US,2020-02-23 04:11:18,42.6,-73.97,30.0,68,1,3.36,clear sky,0.0,0.0
50,Iqaluit,CA,2020-02-23 04:11:56,63.75,-68.51,-31.0,59,5,9.17,clear sky,0.0,0.0
51,Tual,ID,2020-02-23 04:07:05,-5.67,132.75,82.72,76,53,14.67,light rain,1.44,0.0
52,Natal,BR,2020-02-23 04:09:29,-5.79,-35.21,80.6,88,40,6.93,scattered clouds,0.0,0.0
53,Mys Shmidta,BR,2020-02-23 04:09:29,-5.79,-35.21,80.6,88,40,6.93,scattered clouds,0.0,0.0
54,Mahebourg,MU,2020-02-23 04:11:56,-20.41,57.7,82.0,88,40,6.49,shower rain,0.0,0.0
55,Longyearbyen,SJ,2020-02-23 04:11:57,78.22,15.64,-4.0,70,20,11.41,few clouds,0.0,0.0
56,Avarua,CK,2020-02-23 04:09:32,-21.21,-159.78,84.2,79,98,5.82,light rain,0.81,0.0
57,Ribeira Grande,PT,2020-02-23 04:11:57,38.52,-28.7,53.44,80,8,10.07,clear sky,0.0,0.0
58,Pevek,RU,2020-02-23 04:11:57,69.7,170.31,-10.39,96,100,10.27,light snow,0.0,0.13
59,Montepuez,MZ,2020-02-23 04:11:57,-13.13,39.0,70.9,98,100,3.98,overcast clouds,0.0,0.0
60,Buraydah,SA,2020-02-23 04:11:58,26.33,43.98,55.4,50,0,11.41,clear sky,0.0,0.0
61,Puerto Ayora,EC,2020-02-23 04:11:58,-0.74,-90.35,77.0,100,67,4.61,light rain,0.94,0.0
62,Wukari,NG,2020-02-23 04:11:58,7.85,9.78,78.8,16,8,6.6,clear sky,0.0,0.0
63,Homer,US,2020-02-23 04:10:04,59.64,-151.55,19.4,73,90,6.93,light snow,0.0,0.0
64,Jalingo,NG,2020-02-23 04:11:58,8.88,11.37,75.38,14,0,8.37,clear sky,0.0,0.0
65,Skibbereen,IE,2020-02-23 04:11:59,51.55,-9.27,53.6,93,75,27.51,light rain,0.0,0.0
66,Vaini,TO,2020-02-23 04:11:59,-21.2,-175.2,84.2,79,75,12.75,broken clouds,0.0,0.0
67,Bredasdorp,ZA,2020-02-23 04:11:59,-34.53,20.04,60.01,82,21,4.7,few clouds,0.0,0.0
68,Touros,BR,2020-02-23 04:11:59,-5.2,-35.46,80.6,88,40,5.82,shower rain,0.0,0.0
69,Mar Del Plata,AR,2020-02-23 04:11:59,-38.0,-57.56,59.0,93,0,2.24,clear sky,0.0,0.0
70,Busselton,AU,2020-02-23 04:11:59,-33.65,115.33,87.01,30,99,10.38,overcast clouds,0.0,0.0
71,Ilulissat,GL,2020-02-23 04:12:00,69.22,-51.1,-0.4,49,100,16.11,overcast clouds,0.0,0.0
72,Yellowknife,CA,2020-02-23 04:12:00,62.46,-114.35,-4.0,70,40,5.82,scattered clouds,0.0,0.0
73,Ahipara,NZ,2020-02-23 04:12:00,-35.17,173.17,75.99,60,13,7.0,few clouds,0.0,0.0
74,Luderitz,NA,2020-02-23 04:12:00,-26.65,15.16,66.2,77,0,14.99,clear sky,0.0,0.0
75,Port Alfred,ZA,2020-02-23 04:10:00,-33.59,26.89,62.01,88,16,3.0,few clouds,0.0,0.0
76,Hermanus,ZA,2020-02-23 04:12:00,-34.42,19.23,62.01,87,0,5.01,clear sky,0.0,0.0
77,Sioux Lookout,CA,2020-02-23 04:12:01,50.1,-91.92,28.4,79,40,2.3,scattered clouds,0.0,0.0
78,Illoqqortoormiut,CA,2020-02-23 04:12:01,50.1,-91.92,28.4,79,40,2.3,scattered clouds,0.0,0.0
79,Port Elizabeth,ZA,2020-02-23 04:12:01,-33.92,25.57,57.2,87,20,5.82,few clouds,0.0,0.0
80,Skanevik,ZA,2020-02-23 04:12:01,-33.92,25.57,57.2,87,20,5.82,few clouds,0.0,0.0
81,Qaanaaq,GL,2020-02-23 04:12:01,77.48,-69.36,-13.34,83,98,2.57,overcast clouds,0.0,0.0
82,Lasa,IT,2020-02-23 04:12:02,46.62,10.7,37.99,69,5,5.82,clear sky,0.0,0.0
83,Pavelets,RU,2020-02-23 04:12:02,53.79,39.25,32.0,74,100,5.99,overcast clouds,0.0,0.0
84,Kamenskoye,RU,2020-02-23 04:12:02,53.79,39.25,32.0,74,100,5.99,overcast clouds,0.0,0.0
85,Goundam,ML,2020-02-23 04:12:02,16.41,-3.67,74.3,13,33,8.93,scattered clouds,0.0,0.0
86,Bac Giang,VN,2020-02-23 04:12:02,21.27,106.2,71.6,73,20,3.36,mist,0.0,0.0
87,Petropavlovsk-Kamchatskiy,RU,2020-02-23 04:12:02,53.05,158.65,21.2,41,0,2.19,clear sky,0.0,0.0
88,Taolanaro,RU,2020-02-23 04:12:02,53.05,158.65,21.2,41,0,2.19,clear sky,0.0,0.0
89,Genhe,CN,2020-02-23 04:12:03,50.78,121.52,10.85,84,100,2.84,light snow,0.0,0.31
90,Olafsvik,IS,2020-02-23 04:12:03,64.89,-23.71,30.76,76,94,7.76,light snow,0.0,1.06
91,Bengkulu,ID,2020-02-23 04:12:04,-3.8,102.27,87.21,55,0,2.89,clear sky,0.0,0.0
92,Chuy,UY,2020-02-23 04:12:04,-33.7,-53.46,59.22,88,0,4.97,clear sky,0.0,0.0
93,Chernigovka,RU,2020-02-23 04:12:04,44.34,132.57,19.31,72,0,3.09,clear sky,0.0,0.0
94,Vostok,RU,2020-02-23 04:12:04,46.49,135.88,15.19,88,93,6.89,overcast clouds,0.0,0.0
95,Tasiilaq,GL,2020-02-23 04:12:04,65.61,-37.64,14.0,72,0,1.12,clear sky,0.0,0.0
96,Chokurdakh,RU,2020-02-23 04:12:05,70.63,147.92,-12.05,96,100,1.39,overcast clouds,0.0,0.0
97,Pustoshka,RU,2020-02-23 04:12:05,56.34,29.37,35.71,81,81,13.2,light snow,0.0,0.19
98,Ancud,CL,2020-02-23 04:12:05,-41.87,-73.82,57.2,82,0,6.93,clear sky,0.0,0.0
99,Cape Town,ZA,2020-02-23 04:07:30,-33.93,18.42,64.0,72,0,8.05,clear sky,0.0,0.0
100,Lethem,GY,2020-02-23 04:12:05,3.38,-59.8,84.69,44,47,9.28,scattered clouds,0.0,0.0
101,Anuradhapura,LK,2020-02-23 04:12:06,8.36,80.42,79.21,77,100,10.25,overcast clouds,0.0,0.0
102,Torbay,CA,2020-02-23 04:12:06,47.67,-52.73,28.99,79,90,20.8,light shower snow,0.0,0.0
103,Zadar,HR,2020-02-23 04:12:06,44.12,15.24,39.0,49,37,2.24,scattered clouds,0.0,0.0
104,Ahuimanu,US,2020-02-23 04:12:06,21.44,-157.84,80.6,69,75,6.93,broken clouds,0.0,0.0
105,Thompson,CA,2020-02-23 04:12:06,55.74,-97.86,19.4,67,75,5.82,broken clouds,0.0,0.0
106,Nalut,LY,2020-02-23 04:12:06,30.33,10.85,43.7,88,0,9.1,clear sky,0.0,0.0
107,Faanui,PF,2020-02-23 04:08:34,-16.48,-151.75,83.26,69,51,8.03,broken clouds,0.0,0.0
108,Sebastian,US,2020-02-23 04:12:07,35.17,-94.27,48.99,49,1,3.53,clear sky,0.0,0.0
109,Bambous Virieux,MU,2020-02-23 04:12:07,-20.34,57.76,82.0,88,40,8.48,shower rain,0.0,0.0
110,Jurado,CO,2020-02-23 04:12:07,7.11,-77.76,80.67,80,92,10.38,overcast clouds,0.0,0.0
111,Geraldton,AU,2020-02-23 04:12:07,-28.77,114.6,87.8,45,40,5.82,scattered clouds,0.0,0.0
112,Sobolevo,RU,2020-02-23 04:12:08,54.43,31.9,35.4,96,100,20.22,snow,0.0,1.63
113,Castro,BR,2020-02-23 04:12:08,-24.79,-50.01,57.97,90,79,9.42,broken clouds,0.0,0.0
114,Puerto Baquerizo Moreno,EC,2020-02-23 04:12:08,-0.9,-89.6,79.23,85,92,7.81,overcast clouds,0.0,0.0
115,Pingdingshan,CN,2020-02-23 04:12:08,33.74,113.3,60.85,45,0,9.66,clear sky,0.0,0.0
116,Mataura,NZ,2020-02-23 04:12:08,-46.19,168.86,61.0,75,75,15.99,broken clouds,0.0,0.0
117,Vanimo,PG,2020-02-23 04:12:09,-2.67,141.3,82.38,80,32,13.24,scattered clouds,0.0,0.0
118,Kuche,PG,2020-02-23 04:12:09,-2.67,141.3,82.38,80,32,13.24,scattered clouds,0.0,0.0
119,Namatanai,PG,2020-02-23 04:12:09,-3.67,152.43,86.38,70,100,14.88,overcast clouds,0.0,0.0
120,Arraial Do Cabo,BR,2020-02-23 04:12:09,-22.97,-42.03,74.1,81,100,14.97,light rain,1.06,0.0
121,Kemijarvi,BR,2020-02-23 04:12:09,-22.97,-42.03,74.1,81,100,14.97,light rain,0.0,0.0
122,Hami,CN,2020-02-23 04:12:10,42.8,93.45,33.55,47,0,3.24,clear sky,0.0,0.0
123,Hilo,US,2020-02-23 04:11:35,19.73,-155.09,78.8,54,1,11.41,clear sky,0.0,0.0
124,Petatlan,MX,2020-02-23 04:12:10,17.52,-101.27,78.8,69,5,9.46,clear sky,0.0,0.0
125,Caravelas,BR,2020-02-23 04:12:10,-17.71,-39.25,81.16,84,100,15.52,overcast clouds,0.0,0.0
126,Grindavik,IS,2020-02-23 04:12:10,63.84,-22.43,32.0,60,75,16.11,light shower snow,0.0,0.0
127,Pierre,US,2020-02-23 04:12:10,44.37,-100.35,39.2,48,1,8.05,clear sky,0.0,0.0
128,Bubaque,GW,2020-02-23 04:12:11,11.28,-15.83,78.66,69,69,13.2,broken clouds,0.0,0.0
129,Coihaique,CL,2020-02-23 04:12:11,-45.58,-72.07,66.2,89,6,8.05,clear sky,0.0,0.0
130,Fort Nelson,CA,2020-02-23 04:12:11,58.81,-122.7,24.8,49,40,5.82,scattered clouds,0.0,0.0
131,Dinghai,CN,2020-02-23 04:12:11,26.28,119.79,62.6,48,0,15.66,clear sky,0.0,0.0
132,Santa Isabel Do Rio Negro,BR,2020-02-23 04:12:11,-0.41,-65.02,78.91,75,100,3.2,overcast clouds,0.0,0.0
133,Broome,US,2020-02-23 04:12:12,42.25,-75.83,30.0,92,1,4.7,clear sky,0.0,0.0
134,Pangascasan,PH,2020-02-23 04:12:12,16.12,120.09,86.09,34,27,8.79,scattered clouds,0.0,0.0
135,Vila Franca Do Campo,PT,2020-02-23 04:12:12,37.72,-25.43,57.2,82,75,4.7,broken clouds,0.0,0.0
136,Kaitangata,NZ,2020-02-23 04:12:12,-46.28,169.85,68.0,55,94,8.01,overcast clouds,0.0,0.0
137,Fort Walton Beach,US,2020-02-23 04:09:46,30.41,-86.62,46.4,93,1,4.7,clear sky,0.0,0.0
138,North Platte,US,2020-02-23 04:11:26,41.12,-100.77,34.0,32,1,3.02,clear sky,0.0,0.0
139,Sitka,US,2020-02-23 04:12:13,57.05,-135.33,35.6,71,90,9.17,light rain,0.0,0.0
140,Kargasok,RU,2020-02-23 04:12:13,59.06,80.86,-1.25,91,0,4.59,clear sky,0.0,0.0
141,Portland,US,2020-02-23 04:09:26,45.52,-122.68,48.2,70,20,3.36,few clouds,0.0,0.0
142,Laje,BR,2020-02-23 04:12:13,-10.18,-40.97,71.15,83,100,0.89,overcast clouds,0.0,0.0
143,Juneau,US,2020-02-23 04:10:17,58.3,-134.42,36.0,86,90,9.17,overcast clouds,0.0,0.0
144,Hasaki,JP,2020-02-23 04:12:14,35.73,140.83,59.0,26,20,18.34,few clouds,0.0,0.0
145,Alghero,IT,2020-02-23 04:12:14,40.56,8.32,46.0,93,0,1.12,clear sky,0.0,0.0
146,Severo-Kurilsk,RU,2020-02-23 04:12:14,50.68,156.12,18.55,85,100,12.68,overcast clouds,0.0,0.0
147,Jahrom,RU,2020-02-23 04:12:14,50.68,156.12,18.55,85,100,12.68,overcast clouds,0.0,0.0
148,Viedma,AR,2020-02-23 04:12:14,-40.81,-63.0,64.85,39,0,13.87,clear sky,0.0,0.0
149,Kavieng,PG,2020-02-23 04:12:14,-2.57,150.8,84.52,70,0,9.89,clear sky,0.0,0.0
150,Veisiejai,LT,2020-02-23 04:12:15,54.1,23.7,41.0,75,90,22.37,light intensity shower rain,0.0,0.0
151,Trelew,AR,2020-02-23 04:12:15,-43.25,-65.31,75.25,21,0,20.74,clear sky,0.0,0.0
152,Gull Lake,CA,2020-02-23 04:12:15,50.1,-108.48,30.2,86,75,12.75,broken clouds,0.0,0.0
153,Porto Murtinho,BR,2020-02-23 04:12:15,-21.7,-57.88,68.81,45,10,6.71,clear sky,0.0,0.0
154,Attawapiskat,BR,2020-02-23 04:12:15,-21.7,-57.88,68.81,45,10,6.71,clear sky,0.0,0.0
155,Lompoc,US,2020-02-23 04:12:15,34.64,-120.46,55.99,81,90,6.93,overcast clouds,0.0,0.0
156,Narsaq,GL,2020-02-23 04:12:16,60.92,-46.05,24.8,73,100,13.87,light snow,0.0,0.0
157,San Antonio,US,2020-02-23 04:09:11,29.42,-98.49,59.0,62,90,10.29,overcast clouds,0.0,0.0
158,Lira,UG,2020-02-23 04:12:16,2.23,32.91,70.97,67,37,2.01,scattered clouds,0.0,0.0
159,Catumbela,AO,2020-02-23 04:12:17,-12.43,13.55,78.71,81,100,2.82,light rain,1.5,0.0
160,Fortuna,US,2020-02-23 04:12:17,40.6,-124.16,50.0,93,90,6.93,overcast clouds,0.0,0.0
161,Belushya Guba,US,2020-02-23 04:12:17,40.6,-124.16,50.0,93,90,6.93,overcast clouds,0.0,0.0
162,Tartagal,AR,2020-02-23 04:09:19,-22.52,-63.8,64.51,53,97,1.86,overcast clouds,0.0,0.0
163,Broken Hill,AU,2020-02-23 04:12:17,-31.95,141.43,86.0,28,0,5.82,clear sky,0.0,0.0
164,Nouadhibou,MR,2020-02-23 04:12:17,20.93,-17.03,62.6,82,75,13.87,broken clouds,0.0,0.0
165,Saint-Philippe,RE,2020-02-23 04:12:18,-21.36,55.77,78.8,65,75,3.36,broken clouds,0.0,0.0
166,Nizhneyansk,RE,2020-02-23 04:12:18,-21.36,55.77,78.8,65,75,3.36,broken clouds,0.0,0.0
167,San Quintin,MX,2020-02-23 04:12:18,30.48,-115.95,57.97,75,0,7.92,light rain,0.13,0.0
168,Polis,CY,2020-02-23 04:12:18,35.04,32.43,50.0,81,40,5.82,scattered clouds,0.0,0.0
169,Upernavik,GL,2020-02-23 04:12:18,72.79,-56.15,-13.61,91,42,2.84,scattered clouds,0.0,0.0
170,Cumberland,US,2020-02-23 04:12:19,35.05,-78.87,37.4,55,1,4.72,clear sky,0.0,0.0
171,Jumla,NP,2020-02-23 04:12:19,29.27,82.18,36.75,48,41,3.11,scattered clouds,0.0,0.0
172,Kushiro,JP,2020-02-23 04:12:19,42.98,144.37,37.4,69,75,9.17,broken clouds,0.0,0.0
173,El Ejido,ES,2020-02-23 04:12:19,36.78,-2.81,55.99,46,0,10.29,clear sky,0.0,0.0
174,Hokitika,NZ,2020-02-23 04:12:19,-42.72,170.97,61.29,71,0,9.84,clear sky,0.0,0.0
175,Naze,JP,2020-02-23 04:12:19,28.37,129.48,66.2,55,40,17.22,scattered clouds,0.0,0.0
176,Kholodnyy,RU,2020-02-23 04:12:06,62.72,147.95,-14.22,93,97,3.09,overcast clouds,0.0,0.0
177,Sorvag,RU,2020-02-23 04:12:06,62.72,147.95,-14.22,93,97,3.09,overcast clouds,0.0,0.0
178,Sao Felix Do Xingu,BR,2020-02-23 04:12:20,-6.64,-51.99,73.0,96,100,0.76,light rain,0.56,0.0
179,Manyana,BW,2020-02-23 04:12:20,-23.4,21.72,71.67,75,91,1.81,light rain,0.88,0.0
180,Atasu,KZ,2020-02-23 04:12:20,48.68,71.64,7.63,93,95,7.02,overcast clouds,0.0,0.0
181,Kodiak,US,2020-02-23 04:12:21,57.79,-152.41,19.4,62,90,13.87,overcast clouds,0.0,0.0
182,Tuktoyaktuk,CA,2020-02-23 04:12:22,69.45,-133.04,1.4,84,90,3.36,light snow,0.0,0.0
183,Olinda,BR,2020-02-23 04:12:22,-8.01,-34.86,82.4,78,20,3.36,few clouds,0.0,0.0
184,Ranfurly,NZ,2020-02-23 04:12:22,-45.13,170.1,68.0,45,0,3.0,clear sky,0.0,0.0
185,Souillac,MU,2020-02-23 04:12:22,-20.52,57.52,82.0,88,40,6.49,shower rain,0.0,0.0
186,Chaihe,CN,2020-02-23 04:12:23,44.77,129.7,24.55,65,5,11.39,clear sky,0.0,0.0
187,Eyrarbakki,IS,2020-02-23 04:12:23,63.86,-21.15,32.0,92,75,6.93,shower rain,0.0,0.0
188,Andenes,NO,2020-02-23 04:12:23,69.31,16.12,35.01,73,100,18.34,light rain,0.0,0.0
189,La Ronge,CA,2020-02-23 04:12:23,55.1,-105.28,30.2,80,40,6.93,scattered clouds,0.0,0.0
190,Muros,ES,2020-02-23 04:12:23,42.78,-9.06,53.01,100,20,2.19,fog,0.0,0.0
191,Rosarito,MX,2020-02-23 04:12:23,32.33,-117.03,61.0,76,1,7.87,clear sky,0.0,0.0
192,Providencia,MX,2020-02-23 04:12:24,28.72,-111.58,66.0,90,100,1.99,overcast clouds,0.0,0.0
193,Louisbourg,MX,2020-02-23 04:12:24,28.72,-111.58,66.0,90,100,1.99,overcast clouds,0.0,0.0
194,Grants Pass,US,2020-02-23 04:12:24,42.44,-123.33,48.0,60,1,6.93,clear sky,0.0,0.0
195,Dharmadam,IN,2020-02-23 04:12:24,11.78,75.43,80.6,78,40,8.05,haze,0.0,0.0
196,Hamilton,US,2020-02-23 04:12:24,39.18,-84.53,37.4,68,1,5.55,clear sky,0.0,0.0
197,Saskylakh,RU,2020-02-23 04:12:25,71.92,114.08,5.07,95,100,9.22,light snow,0.0,0.38
198,Nanortalik,GL,2020-02-23 04:12:25,60.14,-45.24,25.9,83,100,18.19,snow,0.0,1.81
199,Tiksi,RU,2020-02-23 04:12:25,71.69,128.87,-10.32,92,98,5.93,overcast clouds,0.0,0.0
200,Salalah,OM,2020-02-23 04:12:25,17.02,54.09,69.8,77,40,5.82,scattered clouds,0.0,0.0
201,Tromso,NO,2020-02-23 04:12:25,69.65,18.96,35.6,80,75,27.51,broken clouds,0.0,0.0
202,Quatre Cocos,MU,2020-02-23 04:12:26,-20.21,57.76,82.0,88,40,8.55,shower rain,0.0,0.0
203,Gurgan,MU,2020-02-23 04:12:26,-20.21,57.76,82.0,88,40,8.55,shower rain,0.0,0.0
204,Talara,PE,2020-02-23 04:12:26,-4.58,-81.27,77.38,84,99,4.41,overcast clouds,0.0,0.0
205,Anadyr,RU,2020-02-23 04:12:26,64.75,177.48,-14.8,68,40,2.24,scattered clouds,0.0,0.0
206,Primorsk,UA,2020-02-23 04:12:26,46.73,36.34,38.52,81,87,12.33,overcast clouds,0.0,0.0
207,Vodnyy,RU,2020-02-23 04:12:27,63.5,53.41,29.66,88,100,15.03,light snow,0.0,0.13
208,Qinzhou,CN,2020-02-23 04:12:27,21.95,108.62,73.89,53,7,9.22,clear sky,0.0,0.0
209,Cururupu,BR,2020-02-23 04:12:27,-1.83,-44.87,73.8,98,94,4.81,moderate rain,8.88,0.0
210,Kiama,AU,2020-02-23 04:08:42,-34.68,150.87,77.0,57,40,11.41,scattered clouds,0.0,0.0
211,Guerrero Negro,MX,2020-02-23 04:12:27,27.98,-114.06,59.5,75,82,18.92,broken clouds,0.0,0.0
212,Sao Gabriel Da Cachoeira,BR,2020-02-23 04:12:27,-0.13,-67.09,77.74,83,99,1.88,overcast clouds,0.0,0.0
213,Saint-Ambroise,CA,2020-02-23 04:12:28,48.55,-71.33,32.0,84,20,10.29,few clouds,0.0,0.0
214,Mykhaylivka,UA,2020-02-23 04:12:28,47.27,35.22,30.2,92,6,6.71,mist,0.0,0.0
215,Norman Wells,CA,2020-02-23 04:12:28,65.28,-126.83,5.0,84,75,2.24,light snow,0.0,0.0
216,Jiexiu,CN,2020-02-23 04:12:28,37.02,111.91,48.97,40,0,6.11,clear sky,0.0,0.0
217,Padang,ID,2020-02-23 04:12:28,-0.95,100.35,78.33,62,0,7.67,clear sky,0.0,0.0
218,Krasnoselkup,RU,2020-02-23 04:12:29,65.7,82.47,4.66,88,44,18.63,scattered clouds,0.0,0.0
219,Saint Quentin,RU,2020-02-23 04:12:29,65.7,82.47,4.66,88,44,18.63,scattered clouds,0.0,0.0
220,Te Anau,NZ,2020-02-23 04:12:29,-45.42,167.72,59.0,65,79,9.28,broken clouds,0.0,0.0
221,Isangel,VU,2020-02-23 04:12:29,-19.55,169.27,86.0,74,75,16.04,broken clouds,0.0,0.0
222,Calvinia,ZA,2020-02-23 04:12:29,-31.47,19.78,62.6,67,0,11.41,clear sky,0.0,0.0
223,Caconda,AO,2020-02-23 04:12:30,-13.73,15.07,63.19,96,100,2.66,overcast clouds,0.0,0.0
224,Leningradskiy,RU,2020-02-23 04:12:30,69.38,178.42,-12.05,95,100,6.04,overcast clouds,0.0,0.0
225,Muzhi,RU,2020-02-23 04:12:30,65.37,64.67,28.33,81,0,15.48,clear sky,0.0,0.0
226,San Carlos De Bariloche,AR,2020-02-23 04:12:21,-41.15,-71.31,53.6,54,0,4.7,clear sky,0.0,0.0
227,Karaul,AR,2020-02-23 04:12:21,-41.15,-71.31,53.6,54,0,4.7,clear sky,0.0,0.0
228,Mbanza-Ngungu,CD,2020-02-23 04:12:30,-5.25,14.87,70.47,96,100,0.43,light rain,2.5,0.0
229,Beira,MZ,2020-02-23 04:10:03,-19.84,34.84,80.82,77,68,10.38,broken clouds,0.0,0.0
230,Buala,SB,2020-02-23 04:12:31,-8.14,159.59,83.71,75,80,3.47,light rain,2.63,0.0
231,Cap Malheureux,MU,2020-02-23 04:12:31,-19.98,57.61,82.0,88,40,10.04,shower rain,0.0,0.0
232,Sao Filipe,CV,2020-02-23 04:12:31,14.9,-24.5,68.05,80,100,12.15,overcast clouds,0.0,0.0
233,Cabo San Lucas,MX,2020-02-23 04:12:09,22.89,-109.91,73.4,43,40,10.29,scattered clouds,0.0,0.0
234,Cabedelo,BR,2020-02-23 04:12:32,-6.98,-34.83,80.6,88,20,4.7,few clouds,0.0,0.0
235,Gat,IL,2020-02-23 04:12:28,31.61,34.76,51.8,81,40,5.82,light rain,0.0,0.0
236,Ketchikan,US,2020-02-23 04:09:09,55.34,-131.65,39.2,93,75,8.05,broken clouds,0.0,0.0
237,Barguzin,RU,2020-02-23 04:12:32,53.62,109.62,17.71,93,100,7.0,light snow,0.0,0.63
238,Kalmunai,LK,2020-02-23 04:09:05,7.42,81.82,80.42,81,100,17.49,light rain,1.0,0.0
239,Russell,US,2020-02-23 04:12:32,32.35,-85.2,42.8,54,1,1.92,clear sky,0.0,0.0
240,Puro,PH,2020-02-23 04:12:33,12.48,123.38,81.5,69,11,10.49,few clouds,0.0,0.0
241,Sumbe,AO,2020-02-23 04:12:33,-11.21,13.84,79.23,88,100,2.82,overcast clouds,0.0,0.0
242,Vila Velha,BR,2020-02-23 04:12:33,-20.33,-40.29,75.2,88,90,14.99,moderate rain,0.0,0.0
243,Kamaishi,JP,2020-02-23 04:12:33,39.27,141.88,35.6,74,75,17.22,light shower snow,0.0,0.0
244,Inhambane,MZ,2020-02-23 04:12:33,-23.86,35.38,79.0,80,98,3.91,overcast clouds,0.0,0.0
245,Andra,RU,2020-02-23 04:12:33,62.51,65.89,18.66,93,71,8.01,broken clouds,0.0,0.0
246,Kingman,US,2020-02-23 04:12:34,35.19,-114.05,57.2,76,75,9.42,moderate rain,0.0,0.0
247,Mount Gambier,AU,2020-02-23 04:12:34,-37.83,140.77,80.6,30,0,6.93,clear sky,0.0,0.0
248,Tabiauea,AU,2020-02-23 04:12:34,-37.83,140.77,80.6,30,0,6.93,clear sky,0.0,0.0
249,Ponta Do Sol,PT,2020-02-23 04:12:34,32.67,-17.1,70.0,72,20,19.46,few clouds,0.0,0.0
250,Fare,PF,2020-02-23 04:12:34,-16.7,-151.02,83.39,70,30,9.13,scattered clouds,0.0,0.0
251,Zlatoustovsk,PF,2020-02-23 04:12:34,-16.7,-151.02,83.39,70,30,9.13,scattered clouds,0.0,0.0
252,Saldanha,ZA,2020-02-23 04:12:35,-33.01,17.94,64.4,59,0,11.41,clear sky,0.0,0.0
253,Mahibadhoo,MV,2020-02-23 04:12:35,3.78,72.97,83.12,77,95,18.84,moderate rain,4.31,0.0
254,Lakatoro,VU,2020-02-23 04:12:35,-16.1,167.42,86.0,70,40,8.05,scattered clouds,0.0,0.0
255,Samusu,VU,2020-02-23 04:12:35,-16.1,167.42,86.0,70,40,8.05,scattered clouds,0.0,0.0
256,Inderborskiy,VU,2020-02-23 04:12:35,-16.1,167.42,86.0,70,40,8.05,scattered clouds,0.0,0.0
257,Cherskiy,RU,2020-02-23 04:12:36,68.75,161.3,-17.18,94,94,5.64,overcast clouds,0.0,0.0
258,Inirida,CO,2020-02-23 04:12:36,3.87,-67.92,77.07,88,66,1.95,light rain,0.44,0.0
259,Victoria,HK,2020-02-23 04:10:03,22.29,114.16,73.99,49,28,12.75,scattered clouds,0.0,0.0
260,Jishou,CN,2020-02-23 04:12:36,28.32,109.72,55.45,72,85,1.59,overcast clouds,0.0,0.0
261,Grand River South East,CN,2020-02-23 04:12:36,28.32,109.72,55.45,72,85,1.59,overcast clouds,0.0,0.0
262,Khatanga,RU,2020-02-23 04:08:59,71.97,102.5,11.23,78,100,16.13,overcast clouds,0.0,0.0
263,Bud,US,2020-02-23 04:12:37,39.45,-86.18,37.99,40,1,6.93,clear sky,0.0,0.0
264,Pisco,PE,2020-02-23 04:12:37,-13.7,-76.22,75.2,83,75,9.17,broken clouds,0.0,0.0
265,Algiers,DZ,2020-02-23 04:09:05,36.75,3.04,39.2,100,20,3.36,few clouds,0.0,0.0
266,Bathsheba,BB,2020-02-23 04:12:37,13.22,-59.52,77.0,83,40,6.93,scattered clouds,0.0,0.0
267,Talnakh,RU,2020-02-23 04:12:37,69.49,88.4,8.6,92,75,29.08,snow,0.0,0.0
268,Palabuhanratu,RU,2020-02-23 04:12:37,69.49,88.4,8.6,92,75,29.08,snow,0.0,0.0
269,Arlit,NE,2020-02-23 04:12:38,18.74,7.39,72.59,15,62,19.48,broken clouds,0.0,0.0
270,Albert Lea,US,2020-02-23 04:11:07,43.65,-93.37,37.4,86,1,4.7,clear sky,0.0,0.0
271,San Clemente,US,2020-02-23 04:10:19,33.43,-117.61,60.01,87,1,4.43,clear sky,0.0,0.0
272,Jackson,US,2020-02-23 04:12:38,42.42,-122.83,48.0,60,1,6.93,clear sky,0.0,0.0
273,Los Llanos De Aridane,ES,2020-02-23 04:12:38,28.66,-17.92,71.6,53,100,18.34,overcast clouds,0.0,0.0
274,Ranong,TH,2020-02-23 04:12:39,9.97,98.63,84.2,70,75,3.36,broken clouds,0.0,0.0
275,Yumen,CN,2020-02-23 04:12:39,40.28,97.2,38.57,25,0,25.72,clear sky,0.0,0.0
276,Hvammstangi,CN,2020-02-23 04:12:39,40.28,97.2,38.57,25,0,25.72,clear sky,0.0,0.0
277,Paamiut,GL,2020-02-23 04:12:39,61.99,-49.67,19.26,92,100,12.62,light snow,0.0,0.69
278,Marcona,GL,2020-02-23 04:12:39,61.99,-49.67,19.26,92,100,12.62,light snow,0.0,0.0
279,Arcachon,FR,2020-02-23 04:12:40,44.59,-1.05,42.8,100,90,1.79,overcast clouds,0.0,0.0
280,Pori,FI,2020-02-23 04:12:40,61.48,21.78,37.4,69,28,17.22,scattered clouds,0.0,0.0
281,Aktash,RU,2020-02-23 04:12:05,50.3,87.73,21.9,95,100,1.81,light snow,0.0,1.19
282,Cidreira,BR,2020-02-23 04:12:40,-30.18,-50.21,70.12,64,3,6.67,light rain,0.13,0.0
283,Bambari,CF,2020-02-23 04:12:40,5.77,20.68,71.33,30,30,3.31,scattered clouds,0.0,0.0
284,Vardo,NO,2020-02-23 04:12:41,70.37,31.11,32.88,80,67,17.11,broken clouds,0.0,0.0
285,Codrington,AU,2020-02-23 04:12:41,-38.27,141.97,62.46,74,0,10.89,clear sky,0.0,0.0
286,Erfurt,DE,2020-02-23 04:12:41,50.98,11.03,48.99,81,75,20.8,light rain,0.0,0.0
287,Espanola,US,2020-02-23 04:09:41,35.99,-106.08,43.0,93,90,3.36,light rain,0.0,0.0
288,Porto Novo,BJ,2020-02-23 04:12:41,6.5,2.6,84.2,89,20,6.93,few clouds,0.0,0.0
289,Malakal,SS,2020-02-23 04:12:42,9.53,31.66,72.54,14,2,5.59,clear sky,0.0,0.0
290,Chegdomyn,RU,2020-02-23 04:12:42,51.12,133.02,8.71,85,25,2.55,scattered clouds,0.0,0.0
291,Baillif,GP,2020-02-23 04:12:42,16.02,-61.75,73.4,88,75,2.24,broken clouds,0.0,0.0
292,Shieli,KZ,2020-02-23 04:12:42,44.17,66.75,32.04,82,100,6.42,overcast clouds,0.0,0.0
293,Kahului,US,2020-02-23 04:12:42,20.89,-156.47,82.4,57,40,5.82,scattered clouds,0.0,0.0
294,Kalianget,ID,2020-02-23 04:08:03,-7.05,113.93,83.62,78,100,12.17,light rain,1.69,0.0
295,Kalakamati,BW,2020-02-23 04:12:43,-20.59,27.31,69.8,100,75,9.17,thunderstorm with heavy rain,0.0,0.0
296,Sijunjung,ID,2020-02-23 04:12:43,-0.69,100.95,78.42,72,27,2.77,light rain,0.44,0.0
297,Hofn,IS,2020-02-23 04:12:43,64.25,-15.21,30.97,94,100,3.62,light snow,0.0,0.56
298,Lagoa,PT,2020-02-23 04:12:43,39.05,-27.98,58.55,77,0,13.73,clear sky,0.0,0.0
299,New Norfolk,AU,2020-02-23 04:12:43,-42.78,147.06,79.0,52,20,18.34,few clouds,0.0,0.0
300,Gediz,TR,2020-02-23 04:12:44,39.04,29.41,32.0,87,20,14.99,few clouds,0.0,0.0
301,Abonnema,NG,2020-02-23 04:12:44,4.71,6.79,78.8,94,87,6.96,overcast clouds,0.0,0.0
302,Nicoya,CR,2020-02-23 04:12:44,10.15,-85.45,80.6,57,100,23.04,overcast clouds,0.0,0.0
303,Solginskiy,RU,2020-02-23 04:12:44,61.05,41.34,31.93,92,100,20.56,light snow,0.0,1.06
304,Kijang,KR,2020-02-23 04:10:48,35.24,129.21,46.4,31,0,10.29,clear sky,0.0,0.0
305,Necochea,AR,2020-02-23 04:11:41,-38.55,-58.74,52.0,95,0,4.0,clear sky,0.0,0.0
306,Aklavik,CA,2020-02-23 04:12:45,68.22,-135.01,-0.4,77,90,3.36,light snow,0.0,0.0
307,Tsihombe,CA,2020-02-23 04:12:45,68.22,-135.01,-0.4,77,90,3.36,light snow,0.0,0.0
308,Gizo,SB,2020-02-23 04:12:45,-8.1,156.84,82.62,80,31,8.46,light rain,1.5,0.0
309,Brae,GB,2020-02-23 04:12:45,60.4,-1.35,41.0,93,95,2.24,overcast clouds,0.0,0.0
310,Bilibino,RU,2020-02-23 04:12:45,68.05,166.44,-19.82,95,100,2.55,overcast clouds,0.0,0.0
311,Beisfjord,NO,2020-02-23 04:12:46,68.38,17.6,37.4,69,97,27.51,light snow,0.0,0.69
312,Corinto,GR,2020-02-23 04:12:46,37.94,22.96,46.99,75,75,3.36,broken clouds,0.0,0.0
313,Gangotri,GR,2020-02-23 04:12:46,37.94,22.96,46.99,75,75,3.36,broken clouds,0.0,0.0
314,Saleaula,GR,2020-02-23 04:12:46,37.94,22.96,46.99,75,75,3.36,broken clouds,0.0,0.0
315,Matara,LK,2020-02-23 04:12:42,5.95,80.54,81.5,64,100,8.16,overcast clouds,0.0,0.0
316,Airai,TL,2020-02-23 04:12:46,-8.93,125.41,83.41,54,0,3.94,clear sky,0.0,0.0
317,Gayeri,BF,2020-02-23 04:12:47,12.65,0.49,76.28,17,0,11.27,clear sky,0.0,0.0
318,Alofi,NU,2020-02-23 04:12:47,-19.06,-169.92,84.2,79,75,8.05,broken clouds,0.0,0.0
319,Iskele,NU,2020-02-23 04:12:47,-19.06,-169.92,84.2,79,75,8.05,broken clouds,0.0,0.0
320,Jibuti,DJ,2020-02-23 04:12:47,11.5,42.5,78.8,74,75,12.5,broken clouds,0.0,0.0
321,Husavik,IS,2020-02-23 04:12:47,66.04,-17.34,19.76,74,100,10.22,overcast clouds,0.0,0.0
322,Okato,NZ,2020-02-23 04:12:48,-39.2,173.88,66.99,46,18,15.01,few clouds,0.0,0.0
323,Vitim,RU,2020-02-23 04:12:05,59.45,112.56,18.1,93,100,3.74,light snow,0.0,0.25
324,Port Macquarie,AU,2020-02-23 04:12:48,-31.43,152.92,78.01,50,100,9.17,overcast clouds,0.0,0.0
325,Kholmogory,RU,2020-02-23 04:12:48,64.22,41.66,33.8,96,90,20.13,overcast clouds,0.0,0.0
326,Cumaral,CO,2020-02-23 04:12:48,4.27,-73.49,63.81,77,100,4.45,light rain,2.75,0.0
327,Dingle,PH,2020-02-23 04:12:49,11.0,122.67,81.34,69,24,15.93,light rain,0.13,0.0
328,Gualan,GT,2020-02-23 04:12:49,15.13,-89.37,66.42,93,62,4.92,light rain,0.44,0.0
329,Dzhebariki-Khaya,RU,2020-02-23 04:12:06,62.22,135.8,4.73,89,89,0.43,overcast clouds,0.0,0.0
330,Tura,IN,2020-02-23 04:12:49,25.52,90.22,77.29,39,100,4.03,overcast clouds,0.0,0.0
331,Tuatapere,NZ,2020-02-23 04:12:49,-46.13,167.68,61.0,75,40,15.99,scattered clouds,0.0,0.0
332,Mayo,US,2020-02-23 04:12:49,38.89,-76.51,41.0,68,1,5.77,clear sky,0.0,0.0
333,Port Hardy,CA,2020-02-23 04:12:47,50.7,-127.42,42.8,81,90,14.99,overcast clouds,0.0,0.0
334,Port Moresby,PG,2020-02-23 04:11:46,-9.44,147.18,89.6,75,75,17.22,broken clouds,0.0,0.0
335,Susehri,TR,2020-02-23 04:12:50,40.16,38.09,22.95,96,100,3.04,light snow,0.0,0.13
336,Diffa,NE,2020-02-23 04:12:50,13.32,12.61,67.35,23,19,11.97,few clouds,0.0,0.0
337,Dzitbalche,MX,2020-02-23 04:12:50,20.32,-90.05,64.51,74,0,4.63,clear sky,0.0,0.0
338,Ravar,IR,2020-02-23 04:12:51,31.27,56.81,52.25,44,0,3.69,clear sky,0.0,0.0
339,Huanan,CN,2020-02-23 04:12:51,46.22,130.52,22.75,81,5,13.27,clear sky,0.0,0.0
340,Khonuu,CN,2020-02-23 04:12:51,46.22,130.52,22.75,81,5,13.27,clear sky,0.0,0.0
341,Roma,US,2020-02-23 04:10:03,43.21,-75.46,30.0,85,1,6.93,clear sky,0.0,0.0
342,Rocha,UY,2020-02-23 04:12:51,-34.48,-54.33,51.8,91,0,0.98,clear sky,0.0,0.0
343,Manaus,BR,2020-02-23 04:12:51,-3.1,-60.02,77.0,100,75,1.12,broken clouds,0.0,0.0
344,Juybar,IR,2020-02-23 04:12:52,36.64,52.91,48.2,100,90,2.24,mist,0.0,0.0
345,Camacha,PT,2020-02-23 04:12:52,33.08,-16.33,64.4,82,40,18.34,scattered clouds,0.0,0.0
346,Port Hedland,AU,2020-02-23 04:12:52,-20.32,118.57,96.8,34,9,6.93,clear sky,0.0,0.0
347,Rio Grande,BR,2020-02-23 04:12:52,-32.03,-52.1,59.0,94,8,10.85,clear sky,0.0,0.0
348,Pangody,RU,2020-02-23 04:12:52,65.85,74.49,24.12,93,99,17.74,light snow,0.0,0.25
349,Lala,PH,2020-02-23 04:12:53,7.97,123.75,80.47,61,23,6.98,few clouds,0.0,0.0
350,Asau,RO,2020-02-23 04:12:53,46.43,26.4,36.0,80,100,5.82,overcast clouds,0.0,0.0
351,Christchurch,NZ,2020-02-23 04:11:06,-43.53,172.63,70.0,46,0,11.41,clear sky,0.0,0.0
352,Tazovskiy,RU,2020-02-23 04:12:53,67.47,78.7,18.0,91,100,19.26,light snow,0.0,0.13
353,Achisay,RU,2020-02-23 04:12:53,67.47,78.7,18.0,91,100,19.26,light snow,0.0,0.0
354,Djambala,CG,2020-02-23 04:12:54,-2.54,14.75,72.32,85,100,4.07,overcast clouds,0.0,0.0
355,Abaza,RU,2020-02-23 04:12:54,52.66,90.09,18.61,94,100,2.39,light snow,0.0,1.06
356,Marion,US,2020-02-23 04:09:13,39.77,-86.16,37.99,59,1,9.17,clear sky,0.0,0.0
357,San Vicente,AR,2020-02-23 04:12:54,-26.62,-54.13,57.42,58,0,5.7,clear sky,0.0,0.0
358,Sept-Iles,CA,2020-02-23 04:12:54,50.2,-66.38,30.99,74,20,12.75,few clouds,0.0,0.0
359,Alekseyevka,RU,2020-02-23 04:12:55,50.63,38.69,32.0,97,99,9.73,overcast clouds,0.0,0.0
360,Kang,BW,2020-02-23 04:12:55,-23.68,22.79,69.44,81,6,4.45,clear sky,0.0,0.0
361,Chandbali,IN,2020-02-23 04:12:55,20.78,86.77,73.4,61,0,4.88,clear sky,0.0,0.0
362,Mercedes,AR,2020-02-23 04:12:55,-34.65,-59.43,64.0,97,0,7.05,clear sky,0.0,0.0
363,Mogadishu,SO,2020-02-23 04:12:55,2.04,45.34,80.76,83,38,22.79,scattered clouds,0.0,0.0
364,Cantavir,RS,2020-02-23 04:12:56,45.92,19.76,38.59,63,100,6.46,overcast clouds,0.0,0.0
365,Usinsk,RU,2020-02-23 04:12:56,65.99,57.53,30.79,87,91,26.22,light snow,0.0,0.13
366,Lamar,US,2020-02-23 04:12:56,33.67,-95.58,48.0,65,1,6.93,clear sky,0.0,0.0
367,Yatou,CN,2020-02-23 04:12:56,37.15,122.38,42.71,49,0,13.27,clear sky,0.0,0.0
368,Tapa,EE,2020-02-23 04:12:56,59.26,25.96,39.99,73,75,18.34,broken clouds,0.0,0.0
369,Sakaiminato,JP,2020-02-23 04:12:56,35.55,133.23,50.0,43,75,19.46,broken clouds,0.0,0.0
370,Dakar,SN,2020-02-23 04:12:57,14.69,-17.44,69.8,94,100,16.11,overcast clouds,0.0,0.0
371,Yunjinghong,SN,2020-02-23 04:12:57,14.69,-17.44,69.8,94,100,16.11,overcast clouds,0.0,0.0
372,Aksay,RU,2020-02-23 04:12:57,47.26,39.87,33.8,99,90,6.71,fog,0.0,0.0
373,Komsomolskiy,UZ,2020-02-23 04:12:57,40.43,71.72,44.6,87,63,4.7,mist,0.0,0.0
374,Chacarita,CR,2020-02-23 04:12:57,9.98,-84.77,71.6,53,100,17.22,overcast clouds,0.0,0.0
375,Port Lincoln,AU,2020-02-23 04:12:57,-34.73,135.87,82.49,32,1,8.75,clear sky,0.0,0.0
376,Jacareacanga,BR,2020-02-23 04:12:58,-6.22,-57.75,73.85,96,100,1.41,overcast clouds,0.0,0.0
377,Kununurra,AU,2020-02-23 04:12:58,-15.77,128.73,100.4,25,17,9.17,few clouds,0.0,0.0
378,Huambo,AO,2020-02-23 04:12:58,-12.78,15.74,64.06,92,100,2.39,light rain,0.56,0.0
379,Dicabisagan,PH,2020-02-23 04:12:58,17.08,122.42,75.36,85,87,12.75,moderate rain,3.56,0.0
380,Price,US,2020-02-23 04:12:58,39.6,-110.81,41.0,55,90,4.7,overcast clouds,0.0,0.0
381,Auxerre,FR,2020-02-23 04:12:59,47.8,3.57,48.2,87,90,6.93,overcast clouds,0.0,0.0
382,Poso,ID,2020-02-23 04:12:59,-1.4,120.75,74.07,81,93,3.78,light rain,0.75,0.0
383,Nova Aurora,BR,2020-02-23 04:12:59,-22.87,-52.57,68.45,92,0,1.99,clear sky,0.0,0.0
384,Chivay,PE,2020-02-23 04:12:59,-15.64,-71.6,32.36,100,100,3.78,heavy snow,0.0,29.31
385,Hambantota,LK,2020-02-23 04:12:59,6.12,81.12,82.4,88,75,13.87,broken clouds,0.0,0.0
386,Amapa,BR,2020-02-23 04:13:00,1.0,-52.0,72.82,99,100,1.39,overcast clouds,0.0,0.0
387,Margate,GB,2020-02-23 04:13:00,51.38,1.39,53.01,87,75,14.99,light rain,0.0,0.0
388,Richards Bay,ZA,2020-02-23 04:13:00,-28.78,32.04,79.32,73,100,32.1,light rain,1.25,0.0
389,Ewo,CG,2020-02-23 04:13:00,-0.87,14.82,75.06,85,100,5.19,overcast clouds,0.0,0.0
390,Omsukchan,RU,2020-02-23 04:13:00,62.53,155.8,-8.12,81,99,1.92,overcast clouds,0.0,0.0
391,Huilong,CN,2020-02-23 04:13:00,31.81,121.66,57.0,45,0,7.0,clear sky,0.0,0.0
392,Karkaralinsk,CN,2020-02-23 04:13:00,31.81,121.66,57.0,45,0,7.0,clear sky,0.0,0.0
393,Nguiu,CN,2020-02-23 04:13:00,31.81,121.66,57.0,45,0,7.0,clear sky,0.0,0.0
394,Port Shepstone,ZA,2020-02-23 04:13:01,-30.74,30.45,67.66,85,84,18.19,light rain,0.31,0.0
395,Moulins,FR,2020-02-23 04:13:01,46.5,3.33,43.0,83,63,3.36,broken clouds,0.0,0.0
396,Hoshcha,UA,2020-02-23 04:13:01,50.6,26.67,41.05,72,100,17.34,light rain,0.31,0.0
397,Samalaeulu,UA,2020-02-23 04:13:01,50.6,26.67,41.05,72,100,17.34,light rain,0.0,0.0
398,Merauke,ID,2020-02-23 04:13:02,-8.47,140.33,89.85,62,70,11.54,light rain,0.31,0.0
399,Marawi,PH,2020-02-23 04:13:02,8.0,124.29,81.0,78,0,8.01,clear sky,0.0,0.0
400,Straja,RO,2020-02-23 04:13:02,47.92,25.55,41.0,60,40,12.37,scattered clouds,0.0,0.0
401,Tocantinopolis,RO,2020-02-23 04:13:02,47.92,25.55,41.0,60,40,12.37,scattered clouds,0.0,0.0
402,Chapais,CA,2020-02-23 04:13:02,49.78,-74.85,26.6,68,75,6.93,broken clouds,0.0,0.0
403,Bereda,ES,2020-02-23 04:13:03,43.27,-7.54,46.99,100,90,3.04,fog,0.0,0.0
404,Domoni,KM,2020-02-23 04:13:03,-12.26,44.53,83.95,76,95,9.55,light rain,1.13,0.0
405,Shingu,JP,2020-02-23 04:13:03,33.73,135.98,51.8,48,20,19.46,few clouds,0.0,0.0
406,Havre-Saint-Pierre,CA,2020-02-23 04:13:03,50.23,-63.6,28.4,86,90,11.41,overcast clouds,0.0,0.0
407,Winnemucca,US,2020-02-23 04:13:03,40.97,-117.74,44.01,32,1,6.93,clear sky,0.0,0.0
408,Coahuayana,MX,2020-02-23 04:13:04,18.73,-103.68,71.1,85,0,3.76,clear sky,0.0,0.0
409,Tiznit,MA,2020-02-23 04:13:04,29.58,-9.5,63.37,20,0,32.82,clear sky,0.0,0.0
410,Tumannyy,MA,2020-02-23 04:13:04,29.58,-9.5,63.37,20,0,32.82,clear sky,0.0,0.0
411,Aleksandrovskiy Zavod,RU,2020-02-23 04:13:04,50.92,117.94,12.6,86,93,3.98,overcast clouds,0.0,0.0
412,Monrovia,LR,2020-02-23 04:08:19,6.3,-10.8,81.14,85,22,6.13,few clouds,0.0,0.0
413,Arman,RU,2020-02-23 04:13:05,59.7,150.17,2.17,87,100,4.43,light snow,0.0,0.13
414,Izhma,RU,2020-02-23 04:13:05,65.01,53.91,30.92,87,97,16.58,overcast clouds,0.0,0.0
415,Teahupoo,PF,2020-02-23 04:12:59,-17.83,-149.27,84.2,74,20,12.75,few clouds,0.0,0.0
416,Wilmington,US,2020-02-23 04:09:38,34.23,-77.94,41.0,80,1,2.98,clear sky,0.0,0.0
417,Castanas,PH,2020-02-23 04:13:05,13.88,121.55,81.0,79,69,10.0,light rain,0.94,0.0
418,Constitucion,CL,2020-02-23 04:13:05,-35.33,-72.42,51.35,92,16,3.13,few clouds,0.0,0.0
419,Ostrovnoy,RU,2020-02-23 04:13:06,68.05,39.51,30.06,90,100,22.26,light snow,0.0,0.19
420,Lewiston,US,2020-02-23 04:13:06,44.1,-70.21,30.99,79,1,2.46,clear sky,0.0,0.0
421,Goderich,CA,2020-02-23 04:13:06,43.75,-81.72,39.0,59,0,3.0,clear sky,0.0,0.0
422,Dandong,CN,2020-02-23 04:13:06,40.13,124.39,38.37,55,31,12.12,scattered clouds,0.0,0.0
423,Akureyri,IS,2020-02-23 04:13:06,65.68,-18.09,13.17,76,100,10.36,overcast clouds,0.0,0.0
424,Jaguey Grande,CU,2020-02-23 04:13:07,22.53,-81.13,68.0,82,75,8.05,broken clouds,0.0,0.0
425,Praya,CV,2020-02-23 04:13:07,14.92,-23.51,69.8,73,100,18.34,overcast clouds,0.0,0.0
426,Saint-Leu,RE,2020-02-23 04:13:07,-21.15,55.28,78.8,65,75,3.36,broken clouds,0.0,0.0
427,Okha,RU,2020-02-23 04:13:07,53.57,142.95,9.32,89,98,8.14,overcast clouds,0.0,0.0
428,Faya,SA,2020-02-23 04:13:07,18.39,42.45,57.2,54,18,9.17,few clouds,0.0,0.0
429,Bushehr,IR,2020-02-23 04:11:06,28.97,50.84,60.8,82,0,2.95,mist,0.0,0.0
430,Vaitupu,IR,2020-02-23 04:11:06,28.97,50.84,60.8,82,0,2.95,mist,0.0,0.0
431,Utiroa,IR,2020-02-23 04:11:06,28.97,50.84,60.8,82,0,2.95,mist,0.0,0.0
432,Adrar,MR,2020-02-23 04:13:08,20.5,-10.07,78.66,11,97,13.6,overcast clouds,0.0,0.0
433,Ipixuna,BR,2020-02-23 04:13:08,-1.76,-48.8,78.8,88,40,6.93,scattered clouds,0.0,0.0
434,Nivala,FI,2020-02-23 04:13:08,63.92,25.0,30.99,94,100,17.81,snow,0.0,3.0
435,Charters Towers,AU,2020-02-23 04:13:09,-20.1,146.27,78.91,80,100,14.94,light rain,2.38,0.0
436,Taranagar,IN,2020-02-23 04:13:09,28.67,75.04,64.15,63,0,4.5,clear sky,0.0,0.0
437,Kerchevskiy,RU,2020-02-23 04:13:09,59.95,56.29,30.07,87,100,11.48,overcast clouds,0.0,0.0
438,Ballarat,AU,2020-02-23 04:10:31,-37.57,143.85,86.0,37,0,4.0,clear sky,0.0,0.0
439,Bethel,US,2020-02-23 04:13:09,41.37,-73.41,36.0,58,1,5.82,clear sky,0.0,0.0
440,Rawson,AR,2020-02-23 04:13:09,-43.3,-65.1,71.13,40,0,24.94,clear sky,0.0,0.0
441,Mataro,ES,2020-02-23 04:13:10,41.54,2.44,54.0,93,68,3.36,moderate rain,0.0,0.0
442,Laguna,US,2020-02-23 04:13:10,38.42,-121.42,57.0,81,1,9.17,clear sky,0.0,0.0
443,Matehuala,MX,2020-02-23 04:13:10,23.65,-100.65,61.47,46,100,6.62,overcast clouds,0.0,0.0
444,Vila Do Maio,CV,2020-02-23 04:13:10,15.13,-23.22,69.8,73,100,18.34,overcast clouds,0.0,0.0
445,Pinos,MX,2020-02-23 04:13:10,22.3,-101.57,59.0,62,5,6.87,clear sky,0.0,0.0
446,Muroran,JP,2020-02-23 04:13:11,42.32,140.99,33.8,86,75,19.46,light shower snow,0.0,0.0
447,Carutapera,BR,2020-02-23 04:13:11,-1.2,-46.02,81.66,80,100,10.6,light rain,0.63,0.0
448,Mindelo,CV,2020-02-23 04:13:11,16.89,-24.98,68.0,68,75,20.8,broken clouds,0.0,0.0
449,Shadegan,IR,2020-02-23 04:13:11,30.65,48.66,59.0,82,0,4.7,mist,0.0,0.0
450,Yar-Sale,RU,2020-02-23 04:13:11,66.83,70.83,21.52,92,73,16.93,broken clouds,0.0,0.0
451,Falealupo,RU,2020-02-23 04:13:11,66.83,70.83,21.52,92,73,16.93,broken clouds,0.0,0.0
452,Pahrump,US,2020-02-23 04:13:12,36.21,-115.98,48.99,87,75,4.7,broken clouds,0.0,0.0
453,Labutta,US,2020-02-23 04:13:12,36.21,-115.98,48.99,87,75,4.7,broken clouds,0.0,0.0
454,Bermeo,ES,2020-02-23 04:13:12,43.42,-2.72,46.99,100,0,3.36,clear sky,0.0,0.0
455,Bairiki,KI,2020-02-23 04:13:12,1.33,172.98,89.6,66,40,9.17,scattered clouds,0.0,0.0
456,Deh Rawud,KI,2020-02-23 04:13:12,1.33,172.98,89.6,66,40,9.17,scattered clouds,0.0,0.0
457,Fundulea,RO,2020-02-23 04:13:13,44.47,26.52,37.99,86,53,8.05,broken clouds,0.0,0.0
458,Terrak,NO,2020-02-23 04:13:13,65.09,12.37,39.2,80,100,8.05,light intensity shower rain,0.0,0.0
459,Xichang,CN,2020-02-23 04:13:13,27.9,102.26,48.69,64,7,9.1,clear sky,0.0,0.0
460,San Policarpo,PH,2020-02-23 04:13:13,12.18,125.51,81.16,74,0,12.24,light rain,0.44,0.0
461,Berlevag,NO,2020-02-23 04:13:13,70.86,29.09,34.02,79,0,26.31,clear sky,0.0,0.0
462,Kolokani,ML,2020-02-23 04:13:14,13.57,-8.03,78.15,10,41,10.98,scattered clouds,0.0,0.0
463,Mabaruma,GY,2020-02-23 04:13:14,8.2,-59.78,69.91,98,100,2.19,overcast clouds,0.0,0.0
464,Esperance,AU,2020-02-23 04:13:14,-33.87,121.9,80.6,51,62,11.41,broken clouds,0.0,0.0
465,Hovd,MN,2020-02-23 04:13:14,48.01,91.64,27.23,54,100,5.77,overcast clouds,0.0,0.0
466,Wajir,KE,2020-02-23 04:13:14,1.75,40.06,78.8,78,30,6.93,scattered clouds,0.0,0.0
467,Novoshakhtinsk,RU,2020-02-23 04:13:14,47.76,39.93,33.8,99,90,6.71,fog,0.0,0.0
468,Fairbanks,US,2020-02-23 04:13:15,64.84,-147.72,8.6,71,90,12.75,overcast clouds,0.0,0.0
469,Hobyo,SO,2020-02-23 04:13:15,5.35,48.53,76.05,69,78,15.03,broken clouds,0.0,0.0
470,Qasigiannguit,GL,2020-02-23 04:13:15,68.82,-51.19,-0.4,49,100,16.11,overcast clouds,0.0,0.0
471,Maniitsoq,GL,2020-02-23 04:13:15,65.42,-52.9,9.55,62,89,8.39,overcast clouds,0.0,0.0
472,Verkhoyansk,RU,2020-02-23 04:13:15,67.54,133.38,-7.1,94,100,2.3,overcast clouds,0.0,0.0
473,Pangnirtung,CA,2020-02-23 04:13:16,66.15,-65.71,-33.81,95,56,3.78,broken clouds,0.0,0.0
474,Palafrugell,ES,2020-02-23 04:13:16,41.92,3.16,48.99,100,40,4.7,fog,0.0,0.0
475,Champerico,GT,2020-02-23 04:13:16,14.3,-91.92,77.0,78,0,1.01,clear sky,0.0,0.0
476,Bogande,BF,2020-02-23 04:13:16,12.97,-0.14,75.49,13,47,10.71,scattered clouds,0.0,0.0
477,Meridian,US,2020-02-23 04:13:16,43.61,-116.39,41.0,64,1,0.65,clear sky,0.0,0.0
478,Marsh Harbour,BS,2020-02-23 04:13:16,26.54,-77.06,67.59,71,2,21.41,light rain,0.13,0.0
479,Portobelo,PA,2020-02-23 04:13:17,9.55,-79.65,77.0,73,20,8.05,few clouds,0.0,0.0
480,Bridlington,GB,2020-02-23 04:13:17,54.08,-0.19,44.01,100,100,12.75,heavy intensity rain,0.0,0.0
481,Pontianak,ID,2020-02-23 04:10:51,-0.03,109.33,86.2,66,98,3.09,overcast clouds,0.0,0.0
482,Santarem,BR,2020-02-23 04:13:17,-2.44,-54.71,75.2,100,100,2.24,overcast clouds,0.0,0.0
483,Acajutla,SV,2020-02-23 04:13:17,13.59,-89.83,83.01,71,0,12.75,clear sky,0.0,0.0
484,Raudeberg,NO,2020-02-23 04:13:18,61.99,5.14,39.2,69,94,17.22,light intensity shower rain,0.0,0.0
485,Kavaratti,IN,2020-02-23 04:13:10,10.57,72.64,84.2,83,20,6.93,few clouds,0.0,0.0
486,Shebunino,RU,2020-02-23 04:13:18,46.43,141.86,28.4,81,100,14.9,overcast clouds,0.0,0.0
487,Polyarnyy,RU,2020-02-23 04:13:18,69.2,33.45,32.0,96,75,6.71,broken clouds,0.0,0.0
488,Caborca,MX,2020-02-23 04:13:18,30.58,-111.1,54.0,91,100,4.99,light rain,1.19,0.0
489,Ceccano,IT,2020-02-23 04:13:18,41.57,13.33,48.0,100,100,2.24,overcast clouds,0.0,0.0
490,Emerald,AU,2020-02-23 04:13:19,-23.53,148.17,82.4,61,75,18.34,broken clouds,0.0,0.0
491,Mujiayingzi,CN,2020-02-23 04:13:19,42.12,118.78,37.89,37,100,13.11,overcast clouds,0.0,0.0
492,Lauchhammer,DE,2020-02-23 04:13:19,51.5,13.8,46.99,87,75,11.41,moderate rain,0.0,0.0
493,Cockburn Town,TC,2020-02-23 04:13:19,21.46,-71.14,76.06,81,44,17.38,light rain,0.44,0.0
494,Carmen,MX,2020-02-23 04:13:20,18.63,-91.83,70.9,83,0,5.08,clear sky,0.0,0.0
495,Barentsburg,MX,2020-02-23 04:13:20,18.63,-91.83,70.9,83,0,5.08,clear sky,0.0,0.0
496,Kanniyakumari,IN,2020-02-23 04:13:20,8.08,77.57,80.46,73,97,27.42,overcast clouds,0.0,0.0
497,Tautira,PF,2020-02-23 04:13:20,-17.73,-149.15,84.2,74,20,12.75,few clouds,0.0,0.0
498,Okhotsk,RU,2020-02-23 04:13:20,59.38,143.3,-2.42,86,21,2.86,few clouds,0.0,0.0
499,Iisalmi,FI,2020-02-23 04:13:20,63.56,27.19,33.8,96,90,19.46,light snow,0.0,0.0
500,Tonj,SS,2020-02-23 04:13:21,7.27,28.68,71.64,15,33,5.77,scattered clouds,0.0,0.0
501,Korla,CN,2020-02-23 04:13:21,41.76,86.15,35.01,64,61,1.41,broken clouds,0.0,0.0
502,Batagay,RU,2020-02-23 04:13:21,67.63,134.63,-4.79,92,94,1.66,overcast clouds,0.0,0.0
503,Phan Thiet,VN,2020-02-23 04:13:21,10.93,108.1,87.01,33,0,11.65,clear sky,0.0,0.0
504,Ibra,OM,2020-02-23 04:13:21,22.69,58.53,67.08,66,0,1.97,clear sky,0.0,0.0
505,Manuk Mangkaw,PH,2020-02-23 04:13:22,4.8,119.85,83.07,72,100,8.08,overcast clouds,0.0,0.0
506,The Pas,CA,2020-02-23 04:13:22,53.83,-101.25,35.6,69,90,4.7,light rain,0.0,0.0
507,Aitape,PG,2020-02-23 04:13:22,-3.14,142.35,82.51,78,16,13.98,few clouds,0.0,0.0
508,Umtata,ZA,2020-02-23 04:13:22,-31.59,28.78,57.2,82,90,10.29,light intensity drizzle,0.0,0.0
509,Rungata,ZA,2020-02-23 04:13:22,-31.59,28.78,57.2,82,90,10.29,light intensity drizzle,0.0,0.0
510,Urusha,RU,2020-02-23 04:13:22,54.05,122.9,9.61,90,100,2.15,light snow,0.0,0.38
511,Xam Nua,LA,2020-02-23 04:13:23,20.42,104.04,66.31,47,0,3.91,clear sky,0.0,0.0
512,Lavrentiya,RU,2020-02-23 04:13:23,65.58,-171.0,-15.34,94,0,4.21,clear sky,0.0,0.0
513,Erenhot,CN,2020-02-23 04:13:23,43.65,111.98,26.87,69,0,13.18,clear sky,0.0,0.0
514,Mehamn,NO,2020-02-23 04:13:23,71.04,27.85,25.92,86,0,11.97,clear sky,0.0,0.0
515,Angoram,PG,2020-02-23 04:13:23,-4.06,144.07,90.54,59,25,4.0,scattered clouds,0.0,0.0
516,Newport,GB,2020-02-23 04:13:24,51.59,-3.0,55.99,100,90,18.34,light rain,0.0,0.0
517,Tahoua,NE,2020-02-23 04:13:24,14.89,5.27,73.4,15,87,19.46,overcast clouds,0.0,0.0
518,Huarmey,PE,2020-02-23 04:13:24,-10.07,-78.15,74.57,61,99,1.9,overcast clouds,0.0,0.0
519,Grande-Riviere,PE,2020-02-23 04:13:24,-10.07,-78.15,74.57,61,99,1.9,overcast clouds,0.0,0.0
520,Bandar-E Torkaman,PE,2020-02-23 04:13:24,-10.07,-78.15,74.57,61,99,1.9,overcast clouds,0.0,0.0
521,Edgewater,US,2020-02-23 04:13:24,28.99,-80.9,57.99,87,1,10.29,clear sky,0.0,0.0
522,Saravan,AM,2020-02-23 04:13:25,39.72,45.65,35.6,93,75,4.7,mist,0.0,0.0
523,Sola,VU,2020-02-23 04:13:25,-13.88,167.55,87.8,74,75,14.74,broken clouds,0.0,0.0
524,Halifax,CA,2020-02-23 04:10:46,44.65,-63.57,28.0,73,20,9.17,few clouds,0.0,0.0
525,Chongwe,ZM,2020-02-23 04:13:25,-15.33,28.68,68.0,94,100,1.12,light rain,0.56,0.0
526,Toliary,ZM,2020-02-23 04:13:25,-15.33,28.68,68.0,94,100,1.12,light rain,0.0,0.0
527,Talcahuano,CL,2020-02-23 04:13:26,-36.72,-73.12,57.2,87,0,3.36,clear sky,0.0,0.0
528,Ponta Delgada,PT,2020-02-23 04:13:26,37.73,-25.67,57.2,82,75,4.7,broken clouds,0.0,0.0
529,Zahesi,GE,2020-02-23 04:13:26,41.82,44.75,44.6,75,100,17.22,overcast clouds,0.0,0.0
530,Dimona,IL,2020-02-23 04:13:26,31.07,35.03,45.0,83,0,1.99,clear sky,0.0,0.0
531,Zaidpur,IN,2020-02-23 04:13:26,26.83,81.33,68.0,72,20,3.36,mist,0.0,0.0
532,Okakarara,NA,2020-02-23 04:13:27,-20.58,17.43,68.38,86,95,4.61,light rain,1.56,0.0
533,Praia Da Vitoria,PT,2020-02-23 04:13:27,38.73,-27.07,55.4,82,40,8.03,scattered clouds,0.0,0.0
534,Khani,GE,2020-02-23 04:13:27,41.96,42.96,44.6,100,90,1.12,shower rain,0.0,0.0
535,Ulladulla,AU,2020-02-23 04:13:27,-35.35,150.47,77.0,57,40,11.41,scattered clouds,0.0,0.0
536,Ambilobe,MG,2020-02-23 04:13:27,-13.2,49.05,73.49,91,33,4.52,scattered clouds,0.0,0.0
537,Nordfjordeid,NO,2020-02-23 04:13:27,61.91,5.99,39.2,69,100,17.22,light intensity shower rain,0.0,0.0
538,Virginia Beach,US,2020-02-23 04:13:18,36.85,-75.98,43.0,92,1,11.16,clear sky,0.0,0.0
539,Novska,HR,2020-02-23 04:13:28,45.34,16.98,33.8,80,44,4.88,scattered clouds,0.0,0.0
540,Prince Rupert,CA,2020-02-23 04:13:28,54.32,-130.32,39.2,73,90,5.82,overcast clouds,0.0,0.0
541,Rosa Zarate,EC,2020-02-23 04:13:28,0.33,-79.47,73.78,97,87,0.4,overcast clouds,0.0,0.0
542,Toora-Khem,RU,2020-02-23 04:13:28,52.47,96.11,15.73,92,100,2.15,overcast clouds,0.0,0.0
543,Vercelli,IT,2020-02-23 04:13:29,45.32,8.42,45.0,80,56,5.82,mist,0.0,0.0
544,Chhindwara,IN,2020-02-23 04:13:29,22.07,78.93,72.32,44,0,3.02,clear sky,0.0,0.0
545,Cayenne,GF,2020-02-23 04:13:29,4.93,-52.33,80.6,83,90,5.82,overcast clouds,0.0,0.0
546,Shelburne,CA,2020-02-23 04:13:29,44.08,-80.2,36.0,68,1,5.82,clear sky,0.0,0.0
547,Kloulklubed,PW,2020-02-23 04:13:29,7.04,134.26,84.2,74,75,12.75,broken clouds,0.0,0.0
548,Niigata,JP,2020-02-23 04:09:18,37.9,139.02,42.8,70,75,29.97,broken clouds,0.0,0.0
549,Kargil,IN,2020-02-23 04:13:30,34.57,76.1,-2.54,74,21,1.21,few clouds,0.0,0.0
550,Qingquan,CN,2020-02-23 04:13:30,30.45,115.26,62.6,42,21,5.68,few clouds,0.0,0.0
551,College,US,2020-02-23 04:13:30,64.86,-147.8,8.6,71,90,4.7,snow,0.0,0.0
552,Khanino,RU,2020-02-23 04:13:30,54.21,36.62,32.0,94,100,15.66,light snow,0.0,0.5
553,Anshun,CN,2020-02-23 04:13:30,26.25,105.93,54.61,87,100,13.27,overcast clouds,0.0,0.0
554,General Pico,AR,2020-02-23 04:13:31,-35.66,-63.76,59.43,49,0,4.76,clear sky,0.0,0.0
555,Rio Gallegos,AR,2020-02-23 04:13:31,-51.62,-69.22,59.0,38,33,36.91,scattered clouds,0.0,0.0
556,Kishi,NG,2020-02-23 04:13:31,9.08,3.85,74.7,20,0,3.51,clear sky,0.0,0.0
557,Dubenskiy,NG,2020-02-23 04:13:31,9.08,3.85,74.7,20,0,3.51,clear sky,0.0,0.0
558,Taoudenni,ML,2020-02-23 04:13:31,22.68,-3.98,73.22,15,62,13.76,broken clouds,0.0,0.0
559,Kaohsiung,TW,2020-02-23 04:11:44,22.62,120.31,78.8,50,40,10.29,scattered clouds,0.0,0.0
560,Leshukonskoye,RU,2020-02-23 04:13:32,64.9,45.76,31.87,94,100,18.99,light snow,0.0,0.38
561,Fort-Shevchenko,KZ,2020-02-23 04:13:32,44.51,50.26,40.37,71,100,8.68,overcast clouds,0.0,0.0
562,Baruun-Urt,MN,2020-02-23 04:13:32,46.68,113.28,18.61,81,14,6.42,few clouds,0.0,0.0
563,Ballarpur,IN,2020-02-23 04:13:32,19.83,79.35,74.84,67,0,7.47,clear sky,0.0,0.0
564,Shaunavon,CA,2020-02-23 04:13:32,49.65,-108.42,25.47,91,9,14.32,clear sky,0.0,0.0
565,Los Alamos,US,2020-02-23 04:13:32,35.89,-106.31,44.01,100,90,9.17,light rain,0.0,0.0
566,Bulgan,MN,2020-02-23 04:13:33,48.81,103.53,20.97,75,96,3.36,overcast clouds,0.0,0.0
567,Benguela,AO,2020-02-23 04:13:33,-12.58,13.41,78.71,81,100,2.82,light rain,1.5,0.0
568,Yeppoon,AU,2020-02-23 04:08:53,-23.13,150.73,78.8,83,75,10.29,light intensity shower rain,0.0,0.0
569,Port Blair,IN,2020-02-23 04:13:33,11.67,92.75,84.2,70,40,8.05,haze,0.0,0.0
570,Beringovskiy,RU,2020-02-23 04:13:33,63.05,179.32,-8.12,93,0,4.23,clear sky,0.0,0.0
571,Suhl,DE,2020-02-23 04:13:34,50.6,10.7,48.99,81,75,20.8,light rain,0.0,0.0
572,Rio Brilhante,BR,2020-02-23 04:13:34,-21.8,-54.55,63.27,68,1,4.23,clear sky,0.0,0.0
573,Belmonte,BR,2020-02-23 04:13:34,-15.86,-38.88,80.6,83,40,4.7,scattered clouds,0.0,0.0
574,Mahanoro,MG,2020-02-23 04:13:34,-19.9,48.8,76.08,81,100,5.26,overcast clouds,0.0,0.0
575,Ukiah,US,2020-02-23 04:13:34,39.15,-123.21,55.99,54,1,11.41,clear sky,0.0,0.0
576,Saint-Augustin,CA,2020-02-23 04:13:35,51.23,-58.65,22.41,91,91,20.69,overcast clouds,0.0,0.0
577,Whitehorse,CA,2020-02-23 04:09:00,60.72,-135.05,21.2,57,20,10.29,few clouds,0.0,0.0
578,Astana,KZ,2020-02-23 04:13:35,51.18,71.45,21.2,85,75,4.47,broken clouds,0.0,0.0
579,Bardsir,IR,2020-02-23 04:13:35,29.92,56.57,37.4,64,0,4.7,clear sky,0.0,0.0
580,Pascagoula,US,2020-02-23 04:13:35,30.37,-88.56,46.0,81,1,2.53,clear sky,0.0,0.0
581,Tanout,NE,2020-02-23 04:13:35,14.97,8.89,65.7,16,19,13.78,few clouds,0.0,0.0
582,Ballina,AU,2020-02-23 04:13:36,-28.87,153.57,77.0,73,100,12.75,light rain,0.44,0.0
583,Khor,RU,2020-02-23 04:13:36,47.89,134.95,8.2,90,42,10.96,scattered clouds,0.0,0.0
584,Puerto Carreno,CO,2020-02-23 04:13:36,6.19,-67.49,84.2,62,75,4.7,broken clouds,0.0,0.0
585,Nam Tha,CO,2020-02-23 04:13:36,6.19,-67.49,84.2,62,75,4.7,broken clouds,0.0,0.0
586,Tarko-Sale,RU,2020-02-23 04:13:36,64.92,77.78,14.0,87,92,4.0,heavy snow,0.0,0.0
587,Rawannawi,RU,2020-02-23 04:13:36,64.92,77.78,14.0,87,92,4.0,heavy snow,0.0,0.0
588,Yetkul,RU,2020-02-23 04:13:37,54.82,61.59,17.6,92,40,2.24,scattered clouds,0.0,0.0
589,Fuling,CN,2020-02-23 04:12:25,29.7,107.39,50.52,83,100,3.49,overcast clouds,0.0,0.0
590,Guebwiller,FR,2020-02-23 04:13:37,47.92,7.2,51.8,81,100,10.29,light rain,0.0,0.0
591,Roald,NO,2020-02-23 04:13:37,62.58,6.13,39.2,69,96,18.34,light snow,0.0,1.06
592,Umzimvubu,NO,2020-02-23 04:13:37,62.58,6.13,39.2,69,96,18.34,light snow,0.0,0.0
593,Swift Current,CA,2020-02-23 04:10:03,50.28,-107.8,30.2,86,75,12.75,broken clouds,0.0,0.0
594,Dehloran,IR,2020-02-23 04:13:38,32.69,47.27,60.35,50,68,4.43,broken clouds,0.0,0.0
595,Luanda,AO,2020-02-23 04:13:38,-8.84,13.23,78.8,88,75,3.36,broken clouds,0.0,0.0
596,Burica,AO,2020-02-23 04:13:38,-8.84,13.23,78.8,88,75,3.36,broken clouds,0.0,0.0
597,Afua,BR,2020-02-23 04:13:38,-0.16,-50.39,77.56,91,100,5.3,overcast clouds,0.0,0.0
598,Rovereto,IT,2020-02-23 04:13:38,45.89,11.04,42.01,86,42,2.24,scattered clouds,0.0,0.0
599,Dos Hermanas,ES,2020-02-23 04:13:39,37.28,-5.92,54.0,87,38,1.12,scattered clouds,0.0,0.0
600,Pimentel,PE,2020-02-23 04:13:39,-6.84,-79.93,66.2,29,40,10.29,scattered clouds,0.0,0.0
601,Imbituba,BR,2020-02-23 04:13:39,-28.24,-48.67,66.2,77,0,6.93,light rain,0.38,0.0
602,Sao Joao Da Barra,BR,2020-02-23 04:13:39,-21.64,-41.05,73.72,91,100,3.42,light rain,2.19,0.0
603,Azar Shahr,BR,2020-02-23 04:13:39,-21.64,-41.05,73.72,91,100,3.42,light rain,0.0,0.0
604,La Sarre,CA,2020-02-23 04:13:40,48.8,-79.2,31.19,91,100,9.1,overcast clouds,0.0,0.0
605,Zhigansk,RU,2020-02-23 04:13:40,66.77,123.37,-6.93,96,100,8.95,light snow,0.0,0.25
606,Bolotnoye,RU,2020-02-23 04:13:40,55.67,84.4,18.46,95,85,3.09,overcast clouds,0.0,0.0
607,Gorontalo,ID,2020-02-23 04:13:40,0.54,123.06,90.27,51,51,2.08,broken clouds,0.0,0.0
608,Ventspils,LV,2020-02-23 04:13:40,57.39,21.56,41.0,86,40,24.16,scattered clouds,0.0,0.0
609,Tahlequah,US,2020-02-23 04:13:40,35.92,-94.97,50.0,52,1,9.17,clear sky,0.0,0.0
610,Biu,NG,2020-02-23 04:13:41,10.61,12.19,73.44,20,0,14.25,clear sky,0.0,0.0
611,Klaksvik,FO,2020-02-23 04:13:41,62.23,-6.59,33.8,80,100,8.05,drizzle,0.0,0.0
612,Laranjeiras Do Sul,BR,2020-02-23 04:13:13,-25.41,-52.42,56.21,61,0,3.71,clear sky,0.0,0.0
613,Graneros,CL,2020-02-23 04:13:41,-34.07,-70.73,52.92,46,0,1.45,clear sky,0.0,0.0
614,Luwuk,ID,2020-02-23 04:13:41,-0.95,122.79,85.17,70,100,10.13,light rain,0.56,0.0
615,Hof,DE,2020-02-23 04:13:42,50.32,11.92,48.0,81,90,10.29,light rain,0.0,0.0
616,Waipawa,NZ,2020-02-23 04:13:42,-41.41,175.52,66.0,59,0,16.11,clear sky,0.0,0.0
617,Nantucket,US,2020-02-23 04:13:42,41.28,-70.1,37.4,68,1,5.82,clear sky,0.0,0.0
618,New Scone,GB,2020-02-23 04:13:42,56.42,-3.41,37.4,93,75,12.75,light rain,0.0,0.0
619,Lata,PT,2020-02-23 04:13:42,40.16,-8.33,55.99,93,0,3.36,mist,0.0,0.0
620,Pimenteiras,BR,2020-02-23 04:13:42,-6.25,-41.42,69.46,98,100,3.49,overcast clouds,0.0,0.0
621,Karamea,BR,2020-02-23 04:13:42,-6.25,-41.42,69.46,98,100,3.49,overcast clouds,0.0,0.0
622,Uri,IN,2020-02-23 04:13:43,34.08,74.03,37.09,61,20,8.48,few clouds,0.0,0.0
623,Katsuura,JP,2020-02-23 04:12:52,35.13,140.3,60.01,50,20,19.46,few clouds,0.0,0.0
624,Amga,RU,2020-02-23 04:13:43,60.9,131.96,7.05,91,100,1.61,overcast clouds,0.0,0.0
625,Noumea,NC,2020-02-23 04:13:43,-22.28,166.46,91.4,52,75,13.87,broken clouds,0.0,0.0
626,Kushmurun,KZ,2020-02-23 04:13:43,52.45,64.63,13.21,96,79,2.35,broken clouds,0.0,0.0
627,Kinablangan,PH,2020-02-23 04:13:44,7.69,126.55,80.26,63,20,9.28,few clouds,0.0,0.0
628,Dalbandin,PK,2020-02-23 04:13:44,28.89,64.41,60.26,40,0,3.65,clear sky,0.0,0.0
629,Nishihara,JP,2020-02-23 04:13:44,26.18,127.76,69.8,52,20,6.93,few clouds,0.0,0.0
630,Half Moon Bay,US,2020-02-23 04:13:44,37.46,-122.43,54.0,87,40,8.05,scattered clouds,0.0,0.0
631,Ballstad,US,2020-02-23 04:13:44,37.46,-122.43,54.0,87,40,8.05,scattered clouds,0.0,0.0
632,Abay,KZ,2020-02-23 04:13:45,49.63,72.85,10.4,92,40,4.47,fog,0.0,0.0
633,Kuah,MY,2020-02-23 04:13:45,6.33,99.84,87.8,66,20,16.11,few clouds,0.0,0.0
634,Wahiawa,US,2020-02-23 04:13:45,21.5,-158.02,80.6,69,75,6.93,broken clouds,0.0,0.0
635,Oriximina,BR,2020-02-23 04:13:45,-1.77,-55.87,76.66,89,100,4.56,light rain,0.38,0.0
636,Flagstaff,US,2020-02-23 04:11:38,35.2,-111.65,46.99,92,90,4.7,light rain,0.0,0.0
637,Saint-Francois,FR,2020-02-23 04:13:46,46.42,3.91,39.99,87,100,3.36,overcast clouds,0.0,0.0
638,Solnechnyy,RU,2020-02-23 04:13:46,50.72,136.63,18.16,80,0,3.65,clear sky,0.0,0.0
639,Palmeiras De Goias,BR,2020-02-23 04:13:46,-16.8,-49.93,69.78,93,94,1.28,light rain,0.63,0.0
640,Haines Junction,CA,2020-02-23 04:13:46,60.75,-137.51,7.05,87,18,7.31,few clouds,0.0,0.0
641,Corsicana,US,2020-02-23 04:13:46,32.1,-96.47,50.0,66,1,7.45,clear sky,0.0,0.0
642,Magugu,TZ,2020-02-23 04:13:46,-4.02,35.77,64.76,94,100,2.21,overcast clouds,0.0,0.0
643,Joshimath,IN,2020-02-23 04:13:47,30.57,79.57,38.05,34,20,5.82,few clouds,0.0,0.0
644,Alice,US,2020-02-23 04:13:47,27.75,-98.07,62.6,72,90,4.7,overcast clouds,0.0,0.0
645,Wakkanai,JP,2020-02-23 04:13:47,45.41,141.67,30.2,86,75,33.33,shower snow,0.0,0.0
646,Severomuysk,RU,2020-02-23 04:13:47,56.15,113.43,6.51,86,96,3.98,overcast clouds,0.0,0.0
647,Beloha,MG,2020-02-23 04:13:47,-25.17,45.05,74.52,86,67,7.27,broken clouds,0.0,0.0
648,Jiuquan,CN,2020-02-23 04:13:48,39.74,98.52,39.81,15,0,4.25,clear sky,0.0,0.0
649,Luis Correia,BR,2020-02-23 04:13:48,-2.88,-41.67,73.69,99,100,3.4,light rain,1.06,0.0
650,Niimi,JP,2020-02-23 04:13:48,34.98,133.47,50.0,39,40,5.82,scattered clouds,0.0,0.0
651,Palana,RU,2020-02-23 04:13:48,59.12,159.97,12.29,89,100,11.21,light snow,0.0,0.13
652,Novyy Urgal,RU,2020-02-23 04:13:48,51.07,132.56,3.72,81,35,1.28,scattered clouds,0.0,0.0
653,Kokopo,PG,2020-02-23 04:10:04,-4.35,152.26,83.97,73,97,10.94,overcast clouds,0.0,0.0
654,Marshfield,US,2020-02-23 04:13:49,44.67,-90.17,35.6,74,1,5.82,clear sky,0.0,0.0
655,Tekeli,KZ,2020-02-23 04:13:49,44.83,78.82,21.97,92,100,12.53,snow,0.0,3.44
656,Constantine,DZ,2020-02-23 04:13:49,36.37,6.61,35.6,93,20,2.24,few clouds,0.0,0.0
657,Mingaora,PK,2020-02-23 04:13:49,34.78,72.36,43.16,37,0,7.45,clear sky,0.0,0.0
658,Poya,NC,2020-02-23 04:13:49,-21.35,165.15,79.16,79,0,14.32,clear sky,0.0,0.0
659,Fukue,JP,2020-02-23 04:13:50,32.69,128.84,51.8,40,20,8.05,few clouds,0.0,0.0
660,Dzhusaly,JP,2020-02-23 04:13:50,32.69,128.84,51.8,40,20,8.05,few clouds,0.0,0.0
661,Plettenberg Bay,ZA,2020-02-23 04:13:36,-34.05,23.37,61.68,76,73,7.72,light rain,0.25,0.0
662,Banyo,CM,2020-02-23 04:13:50,6.75,11.82,65.26,26,37,2.1,scattered clouds,0.0,0.0
663,Nisia Floresta,BR,2020-02-23 04:13:50,-6.09,-35.21,80.6,88,40,6.93,scattered clouds,0.0,0.0
664,Valparaiso,CL,2020-02-23 04:13:21,-33.04,-71.63,55.4,87,0,4.7,clear sky,0.0,0.0
665,Fereydunshahr,IR,2020-02-23 04:13:51,32.94,50.12,19.78,52,0,5.59,clear sky,0.0,0.0
666,Uyuni,BO,2020-02-23 04:13:51,-20.46,-66.83,56.21,58,6,9.15,clear sky,0.0,0.0
667,Cooma,AU,2020-02-23 04:13:51,-36.23,149.13,77.0,36,65,8.05,broken clouds,0.0,0.0
668,Ayolas,PY,2020-02-23 04:13:51,-27.4,-56.9,58.77,66,0,5.12,clear sky,0.0,0.0
669,Flinders,AU,2020-02-23 04:13:51,-34.58,150.86,79.0,57,40,11.41,scattered clouds,0.0,0.0
670,Atar,MR,2020-02-23 04:13:51,20.52,-13.05,72.7,12,100,2.24,overcast clouds,0.0,0.0
671,Thinadhoo,MV,2020-02-23 04:13:52,0.53,72.93,83.28,79,94,16.15,overcast clouds,0.0,0.0
672,Puerto Ayacucho,VE,2020-02-23 04:13:52,5.66,-67.62,84.2,62,75,4.7,broken clouds,0.0,0.0
673,Mul,IN,2020-02-23 04:13:52,20.07,79.67,74.84,67,0,7.47,clear sky,0.0,0.0
674,Collie,AU,2020-02-23 04:13:52,-33.37,116.15,87.01,30,61,8.66,broken clouds,0.0,0.0
675,Luganville,VU,2020-02-23 04:13:52,-15.53,167.17,86.0,70,40,8.05,scattered clouds,0.0,0.0
676,Chara,RU,2020-02-23 04:13:53,56.91,118.26,6.46,82,100,1.12,overcast clouds,0.0,0.0
677,Mandalgovi,MN,2020-02-23 04:13:53,45.76,106.27,28.83,49,38,4.41,scattered clouds,0.0,0.0
678,Halalo,MN,2020-02-23 04:13:53,45.76,106.27,28.83,49,38,4.41,scattered clouds,0.0,0.0
679,Mangai,CD,2020-02-23 04:13:53,-4.05,19.53,72.95,97,79,1.36,broken clouds,0.0,0.0
680,Ambodifototra,CD,2020-02-23 04:13:53,-4.05,19.53,72.95,97,79,1.36,broken clouds,0.0,0.0
681,Vao,NC,2020-02-23 04:13:53,-22.67,167.48,79.02,76,8,14.29,clear sky,0.0,0.0
682,Makarska,HR,2020-02-23 04:09:04,43.3,17.02,42.8,70,100,3.36,overcast clouds,0.0,0.0
683,Kudahuvadhoo,MV,2020-02-23 04:13:54,2.67,72.89,83.5,78,100,19.06,overcast clouds,0.0,0.0
684,Kirakira,SB,2020-02-23 04:13:54,-10.45,161.92,83.34,81,9,7.0,light rain,2.56,0.0
685,Gejiu,CN,2020-02-23 04:13:54,23.31,103.16,56.52,74,66,4.45,broken clouds,0.0,0.0
686,Charlestown,AU,2020-02-23 04:13:54,-32.95,151.67,79.0,53,100,10.29,overcast clouds,0.0,0.0
687,Vedeno,RU,2020-02-23 04:13:55,42.97,46.09,37.4,100,90,2.24,mist,0.0,0.0
688,Nelson Bay,AU,2020-02-23 04:13:55,-32.72,152.15,79.0,53,100,10.29,overcast clouds,0.0,0.0
689,Parangan,PH,2020-02-23 04:13:55,5.08,119.94,83.07,72,100,8.08,overcast clouds,0.0,0.0
690,Chichimila,MX,2020-02-23 04:13:55,20.62,-88.22,61.18,78,0,3.02,clear sky,0.0,0.0
691,Sabha,LY,2020-02-23 04:13:55,27.04,14.43,49.87,54,0,9.22,clear sky,0.0,0.0
692,Taltal,CL,2020-02-23 04:13:55,-25.4,-70.48,60.51,85,22,1.5,few clouds,0.0,0.0
693,Ouadda,CF,2020-02-23 04:13:56,8.08,22.4,69.8,13,0,5.61,clear sky,0.0,0.0
694,Kommunar,RU,2020-02-23 04:13:56,59.62,30.39,39.2,83,40,13.42,scattered clouds,0.0,0.0
695,Sendafa,ET,2020-02-23 04:13:56,9.15,39.03,57.2,82,40,10.29,scattered clouds,0.0,0.0
696,Chagda,ET,2020-02-23 04:13:56,9.15,39.03,57.2,82,40,10.29,scattered clouds,0.0,0.0
697,Tonantins,BR,2020-02-23 04:13:56,-2.87,-67.8,75.85,91,100,1.74,overcast clouds,0.0,0.0
698,Esil,KZ,2020-02-23 04:13:57,51.96,66.4,11.75,99,58,0.43,broken clouds,0.0,0.0
699,Tazmalt,DZ,2020-02-23 04:13:57,36.39,4.4,42.8,87,0,11.41,clear sky,0.0,0.0
700,Wajima,JP,2020-02-23 04:13:57,37.4,136.9,44.6,48,40,16.11,scattered clouds,0.0,0.0
701,Casablanca,MA,2020-02-23 04:09:02,33.59,-7.62,64.0,76,0,4.7,clear sky,0.0,0.0
702,Saint-Georges,GD,2020-02-23 04:13:57,12.06,-61.75,78.8,83,20,5.82,few clouds,0.0,0.0
703,Mersing,MY,2020-02-23 04:13:57,2.43,103.84,86.0,84,20,12.75,few clouds,0.0,0.0
704,Fort Saint John,MY,2020-02-23 04:13:57,2.43,103.84,86.0,84,20,12.75,few clouds,0.0,0.0
705,Port Augusta,AU,2020-02-23 04:13:58,-32.5,137.77,90.0,22,0,10.29,clear sky,0.0,0.0
706,Ewa Beach,US,2020-02-23 04:13:58,21.32,-158.01,80.6,69,75,6.93,broken clouds,0.0,0.0
707,Tomatlan,MX,2020-02-23 04:13:58,19.93,-105.25,68.56,88,46,1.59,scattered clouds,0.0,0.0
708,Ozernovskiy,RU,2020-02-23 04:12:06,51.5,156.52,22.32,53,71,3.94,broken clouds,0.0,0.0
709,Arandis,NA,2020-02-23 04:13:58,-22.42,14.97,63.0,91,94,3.0,overcast clouds,0.0,0.0
710,Niltepec,MX,2020-02-23 04:13:59,16.57,-94.62,72.66,67,0,6.58,clear sky,0.0,0.0
711,Formoso Do Araguaia,MX,2020-02-23 04:13:59,16.57,-94.62,72.66,67,0,6.58,clear sky,0.0,0.0
712,Nurota,UZ,2020-02-23 04:13:59,40.56,65.69,41.0,86,100,4.7,mist,0.0,0.0
713,Kungurtug,RU,2020-02-23 04:13:59,50.6,97.52,17.69,90,100,1.3,light snow,0.0,0.25
714,Tagusao,PH,2020-02-23 04:13:59,9.19,117.81,83.25,63,45,16.71,scattered clouds,0.0,0.0
715,Puerto Colombia,CO,2020-02-23 04:14:00,10.99,-74.95,77.0,83,40,16.11,scattered clouds,0.0,0.0
716,Simao,CN,2020-02-23 04:14:00,22.79,100.97,68.07,55,9,3.4,clear sky,0.0,0.0
717,Danville,US,2020-02-23 04:10:29,36.59,-79.39,36.0,55,1,5.19,clear sky,0.0,0.0
718,Piacabucu,BR,2020-02-23 04:14:00,-10.41,-36.43,79.86,84,1,8.12,clear sky,0.0,0.0
719,Akcaabat,TR,2020-02-23 04:14:00,41.02,39.57,44.6,87,75,2.24,light rain,0.0,0.0
720,Tungkang,TR,2020-02-23 04:14:00,41.02,39.57,44.6,87,75,2.24,light rain,0.0,0.0
721,Biak,ID,2020-02-23 04:14:01,-0.91,122.88,85.17,70,100,10.13,light rain,0.56,0.0
722,Merrill,US,2020-02-23 04:14:01,45.18,-89.68,33.8,74,1,5.82,clear sky,0.0,0.0
723,Mount Vernon,US,2020-02-23 04:13:00,40.91,-73.84,42.01,58,1,5.82,clear sky,0.0,0.0
724,Ishigaki,JP,2020-02-23 04:14:01,24.34,124.16,75.2,64,20,17.22,few clouds,0.0,0.0
725,Pasighat,IN,2020-02-23 04:14:01,28.07,95.33,71.8,49,98,5.55,overcast clouds,0.0,0.0
726,Byron Bay,AU,2020-02-23 04:14:02,-28.65,153.62,78.8,57,75,14.99,broken clouds,0.0,0.0
727,Alice Springs,AU,2020-02-23 04:09:08,-23.7,133.88,93.2,13,0,13.87,clear sky,0.0,0.0
728,Santa,PH,2020-02-23 04:14:02,17.49,120.43,87.01,40,0,4.97,clear sky,0.0,0.0
729,Aflu,PH,2020-02-23 04:14:02,17.49,120.43,87.01,40,0,4.97,clear sky,0.0,0.0
730,Antalaha,MG,2020-02-23 04:14:02,-14.9,50.28,81.12,77,100,12.53,overcast clouds,0.0,0.0
731,Cherrapunji,IN,2020-02-23 04:14:02,25.3,91.7,61.47,47,100,3.78,overcast clouds,0.0,0.0
732,Parakai,NZ,2020-02-23 04:14:03,-36.65,174.43,71.6,56,0,24.16,clear sky,0.0,0.0
733,Kolosovka,RU,2020-02-23 04:14:03,56.47,73.61,5.16,97,91,3.58,overcast clouds,0.0,0.0
